PeopleName,pronunciation,Country,Population,Language,Religion,Latitude,Longitude,Global Status of  Evangelical Christianity,Evangelical Engagement,Physical Exertion,Freedom Index,Government Restrictions Index,Social Hostilities Index,Threat Level,ROP1,ROP2,ROP3,People Name,GENC,FIPS,FIPS of Origin,Unnamed: 21,Unnamed: 22,IMB Affinity Group,Not Engaged Anywhere,SPI,Strategic Priority Index,Population Layer,Indigenous,ISOalpha3,
A'ou,a'ou,China,2600,Mandarin Chinese,Ethnoreligion - Chinese Folk Religion,26.8987,105.7893,1,Unengaged,Medium,Not Free,Very High,Low,Other,A011,C0138,113993,A'ou,CHN,CH,,,,Asian Pacific Rim Peoples,Yes,0,Unengaged and Unreached,"""<10","000""",Indigenous,CHN,a'ou
Abai Sungai,abai sun-gai,Malaysia,1200,Abai Sungai,Islam - Sunni,5.687364,118.371083,1,Unengaged,Low,Partly Free,High,High,Level 1: Exercise Normal Precautions,A008,C0059,100005,Abai Sungai,MYS,MY,,,,Asian Pacific Rim Peoples,Yes,0,Unengaged and Unreached,"""<10","000""",Indigenous,MYS,abai sungai
Abanyom,aba-nyo-m,Nigeria,35000,Abanyom,Christianity - Non-Evangelical Protestant,6.30619,8.63055,4,Unengaged,Strenuous,Partly Free,High,Very High,Level 3: Reconsider Travel,A013,C0044,100008,Abanyom,NGA,NI,,,,Sub-Saharan African Peoples,Yes,2,No Longer Unreached,"""10","000+""",Indigenous,NGA,aba-nyom
Abau,abau,Papua New Guinea,15500,Abau,Christianity - Non-Evangelical Protestant,-3.97222,141.32359,5,Unengaged,Strenuous,Partly Free,Low,Moderate,Level 3: Reconsider Travel,A010,C0152,100010,Abau,PNG,PP,,,,Asian Pacific Rim Peoples,Yes,2,No Longer Unreached,"""10","000+""",Indigenous,PNG,abau
Abenaki,abe-naki,Canada,2800,French,Christianity - Roman Catholicism,46.0791,-72.8134,4,Unengaged,Little,Free,Low,Moderate,Level 1: Exercise Normal Precautions,A009,C0154,100021,Abnaki-Penobscot,CAN,CA,,,,American Peoples,Yes,2,No Longer Unreached,"""<10","000""",Indigenous,CAN,abe-naki
Abu-Junuk,abu--ju-nuk,Sudan,10500,Undetermined,Islam - Sunni,11.982667,28.961389,0,Unengaged,Strenuous,Not Free,High,Moderate,Level 4: Do Not Travel,A013,C0156,119453,Abu-Junuk,SDN,SU,,,,Northern African and Middle Eastern Peoples,Yes,0,Unengaged and Unreached,"""10","000+""",Indigenous,SDN,abu--junuk
Abua,abua,Nigeria,54500,Abua,Christianity - Non-Evangelical Protestant,4.83057,6.61492,4,Unengaged,Strenuous,Partly Free,High,Very High,Level 3: Reconsider Travel,A013,C0044,100028,Abua,NGA,NI,,,,Sub-Saharan African Peoples,Yes,2,No Longer Unreached,"""50","000+""",Indigenous,NGA,abua
Abui,abui,Indonesia,29000,Abui,Christianity - Evangelical Protestant,-8.31058,124.58793,6,Unengaged,Medium,Partly Free,Very High,High,Level 2: Exercise Increased Caution,A008,C0075,100029,Abui,IDN,ID,,,,Asian Pacific Rim Peoples,Yes,2,No Longer Unreached,"""10","000+""",Indigenous,IDN,abui
Accukattavandlu,accu-kat-tava-ndlu,India,12000,Telugu,Hinduism,16.998786,81.800167,1,Unengaged,Strenuous,Partly Free,High,Very High,Level 2: Exercise Increased Caution,A012,C0311,117692,Accukattavandlu,IND,IN,,,,South Asian Peoples,Yes,0,Unengaged and Unreached,"""10","000+""",Indigenous,IND,accukat-tavandlu
Achang,acha-ng,China,37500,Achang,Buddhism - Theravada,24.287,97.836,5,Unengaged,Medium,Not Free,Very High,Low,Other,A014,C0229,100038,Achang,CHN,CH,,,,Asian Pacific Rim Peoples,,2,No Longer Unreached,"""10","000+""",Indigenous,CHN,ach--ang
"""Achang",acha-ng,,China,8300,Achang,Buddhism - Mahayana,24.462,97.896,4,Unengaged,Medium,Not Free,Very High,Low,Other,A014,C0229,113977,"""Achang"," Husa""",CHN,CH,,,,Asian Pacific Rim Peoples,Yes,2,No Longer Unreached,"""<10","000""",Indigenous,CHN,ach--ang husa
Achenese,ache-nee-z,United States,375,Aceh,Islam - Sunni,39.96584,-75.200357,1,Unengaged,Little,Free,Moderate,High,Caution,A008,C0002,100036,Acehnese,USA,US,,,,Asian Pacific Rim Peoples,,0,Unengaged and Unreached,"""<10","000""",Diaspora,USA,ach--enese
Acholi,acho-li,Uganda,2445000,Acholi,Christianity - Roman Catholicism,3.17234,32.67602,1,Unengaged,Strenuous,Not Free,Moderate,High,Level 3: Reconsider Travel,A013,C0153,100042,Acholi,UGA,UG,,,,Sub-Saharan African Peoples,,0,Unengaged and Unreached,"""1",000,"000+""",Indigenous,UGA,ach--oli
Acholi,acho-li,United States,500,Acholi,Ethnoreligion - Animism,43.6951,-70.2911,4,Unengaged,Little,Free,Moderate,High,Caution,A013,C0153,100042,Acholi,USA,US,,,,Sub-Saharan African Peoples,,2,No Longer Unreached,"""<10","000""",Diaspora,USA,ach--oli
"""Achumawi",achu-mawi,,United States,1200,English,Christianity - Non-Evangelical Protestant,41.479,-120.484,4,Unengaged,Little,Free,Moderate,High,Caution,A009,C0154,100046,Achumawi,USA,US,,,,American Peoples,Yes,2,No Longer Unreached,"""<10","000""",Indigenous,USA,ach--umawi pitt river
Acre Yaminahua,acre yami-nahua,Bolivia,250,Yaminahua,Ethnoreligion - Animism,-11.1285,-69.3701,4,Unengaged,Medium,Partly Free,Low,High,Level 2: Exercise Increased Caution,A007,C0201,110961,"""Yaminahua"," Jaminawa""",BOL,BL,PE,,,American Peoples,Yes,2,No Longer Unreached,"""<10","000""",Indigenous,BOL,acre yami-nahua
Adabe,adabe,Timor-Leste,6400,Atauran,Christianity - Roman Catholicism,-8.22674,125.57573,6,Unengaged,Strenuous,Free,Low,Moderate,Level 2: Exercise Increased Caution,A008,C0217,100050,Adabe,TLS,TT,,,,Asian Pacific Rim Peoples,Yes,2,No Longer Unreached,"""<10","000""",Indigenous,TLS,adabe
Adara,adara,Nigeria,142000,Adara,Ethnoreligion - Animism,9.99696,7.45933,5,Unengaged,Strenuous,Partly Free,High,Very High,Level 3: Reconsider Travel,A013,C0044,104379,Adara,NGA,NI,,,,Sub-Saharan African Peoples,Yes,2,No Longer Unreached,"""100","000+""",Indigenous,NGA,adara
Adi,adi,China,1400,Adi,Ethnoreligion,29.249612,95.171824,1,Unengaged,Medium,Not Free,Very High,Low,Other,A014,C0004,113979,Adi,CHN,CH,IN,,,South Asian Peoples,,0,Unengaged and Unreached,"""<10","000""",Indigenous,CHN,adi
Adiyan,adi-yan,India,20500,Ravula,Hinduism - Folk,12.181215,75.649705,1,Unengaged,Strenuous,Partly Free,High,Very High,Level 2: Exercise Increased Caution,A012,C0333,111273,Adiyan,IND,IN,,,,South Asian Peoples,Yes,0,Unengaged and Unreached,"""10","000+""",Indigenous,IND,adiyan
Adja,adja,South Sudan,325,Gbaya,Ethnoreligion,8.5526,25.6197,1,Unengaged,Extreme,Not Free,High,Moderate,Level 4: Do Not Travel,A013,C0203,100169,Ajja,SSD,OD,,,,Sub-Saharan African Peoples,Yes,0,Unengaged and Unreached,"""<10","000""",Indigenous,SSD,adja
Aduge,aduge,Nigeria,4200,Aduge,Ethnoreligion - Animism,7.64567,6.13085,6,Unengaged,Strenuous,Partly Free,High,Very High,Level 3: Reconsider Travel,A013,C0085,100078,Aduge,NGA,NI,,,,Sub-Saharan African Peoples,Yes,2,No Longer Unreached,"""<10","000""",Indigenous,NGA,aduge
Adyghe,ady-ghe,Iraq,44000,Adyghe,Islam - Sunni,33.365478,44.399184,1,Unengaged,Strenuous,Not Free,High,Very High,Level 4: Do Not Travel,A003,C0061,100079,Adyghe,IRQ,IZ,RS,,,Central Asian Peoples,,0,Unengaged and Unreached,"""10","000+""",Diaspora,IRQ,adyghe
Adyghe,ady-ghe,Israel,8000,Adyghe,Islam - Sunni,32.721,35.441,1,Unengaged,Little,Free,High,Very High,Other,A003,C0061,100079,Adyghe,ISR,IS,RS,,,Central Asian Peoples,,0,Unengaged and Unreached,"""<10","000""",Diaspora,ISR,adyghe
Adyghe,ady-ghe,Syria,28000,Adyghe,Islam - Sunni,32.520944,36.479919,1,Unengaged,Strenuous,Not Free,Very High,Very High,Level 4: Do Not Travel,A003,C0061,100079,Adyghe,SYR,SY,RS,,,Central Asian Peoples,,0,Unengaged and Unreached,"""10","000+""",Diaspora,SYR,adyghe
Adyghe,ady-ghe,United States,6700,Adyghe,Islam - Sunni,43.058449,-76.145707,1,Unengaged,Little,Free,Moderate,High,Caution,A003,C0061,100079,Adyghe,USA,US,RS,,,Central Asian Peoples,,0,Unengaged and Unreached,"""<10","000""",Diaspora,USA,adyghe
Afar,afar,Eritrea,340000,Afar,Islam - Sunni,14.148039,41.08567,1,Unengaged,Extreme,Not Free,Very High,Low,Level 2: Exercise Increased Caution,A004,C0005,102419,Afar,ERI,ER,ET,,,Northern African and Middle Eastern Peoples,,0,Unengaged and Unreached,"""100","000+""",Indigenous,ERI,afar
Afitti,afi-tti,Sudan,5400,Afitti,Islam - Sunni,12.44598,30.76112,1,Unengaged,Strenuous,Not Free,High,Moderate,Level 4: Do Not Travel,A013,C0156,100090,Afitti,SDN,SU,,,,Northern African and Middle Eastern Peoples,Yes,0,Unengaged and Unreached,"""<10","000""",Indigenous,SDN,afitti
Afrikaner,afri-kane-r,United Kingdom,66000,Afrikaans,Christianity - Non-Evangelical Protestant,51.37688,-0.142373,1,Unengaged,Little,Free,Moderate,High,Level 2: Exercise Increased Caution,A003,C0079,100093,Afrikaner,GBR,UK,SF,,,Sub-Saharan African Peoples,,0,Unengaged and Unreached,"""50","000+""",Diaspora,GBR,afri-kaner
Afrikaner,afri-kane-r,Zambia,81000,Afrikaans,Christianity - Neo-Pentecostalism,-15.3652,28.3146,1,Unengaged,Strenuous,Partly Free,Moderate,Moderate,Level 1: Exercise Normal Precautions,A003,C0079,100093,Afrikaner,ZMB,ZA,SF,,,Sub-Saharan African Peoples,,0,Unengaged and Unreached,"""50","000+""",Diaspora,ZMB,afri-kaner
Afro-Argentine,afro--ar-gen-tine,Argentina,151000,Spanish,Christianity - Folk Catholicism,-34.636105,-58.482237,6,Unengaged,Low,Free,Low,Moderate,Level 1: Exercise Normal Precautions,A007,C0253,115011,Afro-Argentine,ARG,AR,,,,American Peoples,Yes,2,No Longer Unreached,"""100","000+""",Indigenous,ARG,afro-ar-gentine
Afro-Bolivian,afro--bo-livee--uh-n,Bolivia,125000,Spanish,Ethnoreligion,-16.2708,-67.6364,4,Unengaged,Medium,Partly Free,Low,High,Level 2: Exercise Increased Caution,A007,C0253,115012,Afro-Bolivian,BOL,BL,,,,American Peoples,Yes,2,No Longer Unreached,"""100","000+""",Indigenous,BOL,afro-b-olivian
Afro-Grenadian,afro--gre-nadee--uh-n,Canada,19000,Grenadian English Creole,Christianity - Roman Catholicism,43.65792,-79.324609,5,Unengaged,,,,,,A009,C0254,115126,Afro-Grenadian,CAN,CA,,,,American Peoples,,2,No Longer Unreached,"""10","000+""",Diaspora,CAN,afro-gr-enadian
Afro-Grenadian,afro--gre-nadee--uh-n,United States,12000,Grenadian English Creole,Christianity - Roman Catholicism,40.82914,-73.914,5,Unengaged,Little,Free,Moderate,High,Caution,A009,C0254,115126,Afro-Grenadian,USA,US,,,,American Peoples,Yes,2,No Longer Unreached,"""10","000+""",Diaspora,USA,afro-gr-enadian
Afro-Guyanese,afro--gu-yanee-z,Canada,89000,Guyanese English Creole,Christianity - Evangelical Protestant,43.653226,-79.383184,6,Unengaged,,,,,,A007,C0337,103602,Afro-Guyanese,CAN,CA,,,,American Peoples,,2,No Longer Unreached,"""50","000+""",Diaspora,CAN,afro-g-uyanese
Afro-Kittitian,afro--ki-tti-tee--uh-n,Saint Kitts and Nevis,45500,Virgin Islands English Creole,Christianity - Non-Evangelical Protestant,17.2961,-62.7246,6,Unengaged,Medium,Free,Low,Low,Level 1: Exercise Normal Precautions,A009,C0254,106882,"""Antiguan"," mixed""",KNA,SC,,,,American Peoples,Yes,2,No Longer Unreached,"""10","000+""",Indigenous,KNA,afro-ki-ttitian
Afro-Trinidadian,afro--tri-nida-dee--uh-n,Trinidad and Tobago,719000,English,Christianity - Non-Evangelical Protestant,10.667479,-61.508156,6,Unengaged,Medium,Free,Low,Moderate,Level 3: Reconsider Travel,A007,C0337,110196,Afro-Trinidadian,TTO,TD,,,,American Peoples,,2,No Longer Unreached,"""100","000+""",Indigenous,TTO,afro-tri-nidadian
Afshari,afs-hari,Afghanistan,13500,South Azerbaijani,Islam - Sunni,34.5074,69.225,1,Unengaged,Strenuous,Not Free,Very High,High,Level 4: Do Not Travel,A015,C0028,100096,Afshari,AFG,AF,IR,,,Central Asian Peoples,Yes,0,Unengaged and Unreached,"""10","000+""",Diaspora,AFG,afsh--ari
Afshari,afs-hari,Iran,397000,South Azerbaijani,Islam - Shia,36.2051,49.1921,1,Unengaged,Medium,Not Free,Very High,Moderate,Level 4: Do Not Travel,A015,C0028,100096,Afshari,IRN,IR,,,,Central Asian Peoples,Yes,0,Unengaged and Unreached,"""100","000+""",Indigenous,IRN,afsh--ari
Agaria,aga-ria,India,24500,Kacchi,Islam - Sunni,23.242725,69.672364,1,Unengaged,Strenuous,Partly Free,High,Very High,Level 2: Exercise Increased Caution,A012,C0148,111277,"""Agaria"," Muslim""",IND,IN,,,,South Asian Peoples,Yes,0,Unengaged and Unreached,"""10","000+""",Indigenous,IND,agaria
Agasa,agasa,India,632000,Tulu,Hinduism,13.118613,75.227312,1,Unengaged,Strenuous,Partly Free,High,Very High,Level 2: Exercise Increased Caution,A012,C0311,117728,Agasa,IND,IN,,,,South Asian Peoples,Yes,0,Unengaged and Unreached,"""100","000+""",Indigenous,IND,agasa
Agoi,agoi,Nigeria,24500,Agoi,Christianity - Non-Evangelical Protestant,5.87953,8.21629,5,Unengaged,Strenuous,Partly Free,High,Very High,Level 3: Reconsider Travel,A013,C0044,100115,Agoi (Ibami),NGA,NI,,,,Sub-Saharan African Peoples,Yes,2,No Longer Unreached,"""10","000+""",Indigenous,NGA,agoi
Agri,agri,India,68500,Marathi,Hinduism,23.595,72.963,1,Unengaged,Strenuous,Partly Free,High,Very High,Level 2: Exercise Increased Caution,A012,C0311,111284,Agri,IND,IN,,,,South Asian Peoples,Yes,0,Unengaged and Unreached,"""50","000+""",Indigenous,IND,agri
Aguacatec,agua-cate-c,United States,1300,Awakateko,Christianity - Roman Catholicism,36.11792,-79.43084,4,Unengaged,Little,Free,Moderate,High,Caution,A007,C0165,100122,Aguacatec,USA,US,,,,American Peoples,,2,No Longer Unreached,"""<10","000""",Diaspora,USA,agua-catec
Agul,agul,Russian Federation,29000,Aghul,Islam - Sunni,41.782,47.594,1,Unengaged,Low,Not Free,Very High,Very High,Level 4: Do Not Travel,A003,C0061,100126,Agul,RUS,RS,,,,Central Asian Peoples,Yes,0,Unengaged and Unreached,"""10","000+""",Indigenous,RUS,agul
Aguru,aguru,India,19500,Telugu,Hinduism,18.396608,83.336189,1,Unengaged,Strenuous,Partly Free,High,Very High,Level 2: Exercise Increased Caution,A012,C0311,117773,Aguru,IND,IN,,,,South Asian Peoples,Yes,0,Unengaged and Unreached,"""10","000+""",Indigenous,IND,aguru
Agwagwune,agwa-gwu-ne,Nigeria,44000,Agwagwune,Christianity - Non-Evangelical Protestant,5.8371,8.0046,4,Unengaged,Strenuous,Partly Free,High,Very High,Level 3: Reconsider Travel,A013,C0044,100131,Agwagwune,NGA,NI,,,,Sub-Saharan African Peoples,Yes,2,No Longer Unreached,"""10","000+""",Indigenous,NGA,agwa-gwune
Aheu,aheu,Laos,2600,Aheu,Ethnoreligion - Animism,18.2084,104.9801,1,Unengaged,Strenuous,Not Free,High,Moderate,Level 2: Exercise Increased Caution,A011,C0147,105894,Aheu,LAO,LA,,,,Asian Pacific Rim Peoples,Yes,0,Unengaged and Unreached,"""<10","000""",Indigenous,LAO,aheu
Ahmadiya,ahma-diya,India,6900,Urdu,Islam - Sunni,29.6945,77.6738,1,Unengaged,Strenuous,Partly Free,High,Very High,Level 2: Exercise Increased Caution,A012,C0321,100142,Ahmadi,IND,IN,,,,South Asian Peoples,Yes,0,Unengaged and Unreached,"""<10","000""",Indigenous,IND,ahma-diya
"""Ahtena",ahte-na,,United States,650,English,Christianity - Non-Evangelical Protestant,61.70684,-144.88894,4,Unengaged,Little,Free,Moderate,High,Caution,A009,C0154,100144,Ahtena,USA,US,,,,American Peoples,Yes,2,No Longer Unreached,"""<10","000""",Indigenous,USA,ahtena copper river
Ai-Cham,ai--cha-m,China,4200,Ai-Cham,Ethnoreligion - Chinese Folk Religion,25.454,107.8195,0,Unengaged,Medium,Not Free,Very High,Low,Other,A011,C0054,100146,Ai-Cham,CHN,CH,,,,Asian Pacific Rim Peoples,Yes,0,Unengaged and Unreached,"""<10","000""",Indigenous,CHN,ai-c-h-am
Ainu,ainu,China,10500,Ainu,Islam - Sunni,38.930205,76.169596,0,Unengaged,Medium,Not Free,Very High,Low,Other,A015,C0223,100665,Aynu,CHN,CH,,,,Asian Pacific Rim Peoples,Yes,0,Unengaged and Unreached,"""10","000+""",Indigenous,CHN,ainu
Ainu,ainu,Japan,13000,Japanese,Ethnoreligion - Animism,42.58505848,142.1285463,1,Unengaged,Little,Free,Low,Moderate,Level 1: Exercise Normal Precautions,A015,C0223,100158,Ainu,JPN,JA,,,,Asian Pacific Rim Peoples,Yes,0,Unengaged and Unreached,"""10","000+""",Indigenous,JPN,ainu
Airoran,airo-ran,Indonesia,1400,Airoran,Christianity - Non-Evangelical Protestant,-1.8522,138.15778,6,Unengaged,Medium,Partly Free,Very High,High,Level 2: Exercise Increased Caution,A010,C0152,100163,Airoran,IDN,ID,,,,Asian Pacific Rim Peoples,Yes,2,No Longer Unreached,"""<10","000""",Indigenous,IDN,air-oran
Aiton,aiton,India,3900,Aiton,Buddhism - Theravada,26.276314,93.897383,1,Unengaged,Strenuous,Partly Free,High,Very High,Level 2: Exercise Increased Caution,A012,C0282,111299,Aiton,IND,IN,,,,South Asian Peoples,Yes,0,Unengaged and Unreached,"""<10","000""",Indigenous,IND,aiton
Aiyarakulu,aiya-raku-lu,India,671000,Telugu,Hinduism,18.435128,84.019536,2,Unengaged,Strenuous,Partly Free,High,Very High,Level 2: Exercise Increased Caution,A012,C0311,111391,Aiyarakulu,IND,IN,,,,South Asian Peoples,Yes,0,Unengaged and Unreached,"""100","000+""",Indigenous,IND,aiyar-akulu
Ak,ak,Papua New Guinea,275,Muno,Ethnoreligion - Animism,-3.594,141.772,4,Unengaged,Strenuous,Partly Free,Low,Moderate,Level 3: Reconsider Travel,A010,C0152,100176,Ak,PNG,PP,,,,Asian Pacific Rim Peoples,Yes,2,No Longer Unreached,"""<10","000""",Indigenous,PNG,ak
Akan,akan,Canada,26500,Akan,Ethnoreligion,43.8061,-79.1976,4,Unengaged,Little,Free,Low,Moderate,Level 1: Exercise Normal Precautions,A013,C0085,100179,Akan,CAN,CA,,,,Sub-Saharan African Peoples,,2,No Longer Unreached,"""10","000+""",Diaspora,CAN,akan
Akan,akan,United Kingdom,27500,Akan,Christianity - Non-Evangelical Protestant,51.563715,-0.138661,1,Unengaged,Little,Free,Moderate,High,Level 2: Exercise Increased Caution,A013,C0085,100179,Akan,GBR,UK,GH,,,Sub-Saharan African Peoples,,0,Unengaged and Unreached,"""10","000+""",Diaspora,GBR,akan
Akaselem,aka-sele-m,Togo,78500,Akaselem,Islam - Folk,9.0329,1.4184,1,Unengaged,Strenuous,Partly Free,Low,Low,Level 1: Exercise Normal Precautions,A013,C0087,101992,"""Akaselem"," Chamba""",TGO,TO,,,,Sub-Saharan African Peoples,Yes,0,Unengaged and Unreached,"""50","000+""",Indigenous,TGO,akas-elem
Ake,ake,China,1300,Biyo,Ethnoreligion - Chinese Folk Religion,22.1678,100.4949,1,Unengaged,Medium,Not Free,Very High,Low,Other,A014,C0229,114852,Akeu,CHN,CH,LA,,,Asian Pacific Rim Peoples,Yes,0,Unengaged and Unreached,"""<10","000""",Indigenous,CHN,ake
Akeu,akeu,Laos,3000,Biyo,Ethnoreligion,22.438383,101.74632,1,Unengaged,Strenuous,Not Free,High,Moderate,Level 2: Exercise Increased Caution,A014,C0229,114852,Akeu,LAO,LA,,,,Asian Pacific Rim Peoples,Yes,0,Unengaged and Unreached,"""<10","000""",Diaspora,LAO,akeu
Akha,akha,Thailand,57500,Akha,Ethnoreligion,20.14444,99.67492,6,Unengaged,Medium,Partly Free,Moderate,High,Level 1: Exercise Normal Precautions,A014,C0089,100185,Akha,THA,TH,CH,,,Asian Pacific Rim Peoples,,2,No Longer Unreached,"""50","000+""",Indigenous,THA,akha
"""Akha",akha,,Laos,113000,Akha,Ethnoreligion - Animism,21.329851,102.163259,1,Unengaged,Strenuous,Not Free,High,Moderate,Level 2: Exercise Increased Caution,A014,C0089,100185,Akha,LAO,LA,,,,Asian Pacific Rim Peoples,,0,Unengaged and Unreached,"""100","000+""",Indigenous,LAO,akha pouly
Akhdam,akh-dam,Yemen,1780000,Ta’izzi-Adeni Arabic,Islam - Sunni,15.380277,44.229043,1,Unengaged,Extreme,Not Free,Very High,High,Level 4: Do Not Travel,A001,C0020,117014,"""Muhamasheen"," Akhdam""",YEM,YM,,,,Northern African and Middle Eastern Peoples,Yes,0,Unengaged and Unreached,"""1",000,"000+""",Indigenous,YEM,akhdam
Akhwakh,akh-wak-h,Russian Federation,6500,Akhvakh,Islam - Sunni,42.40035,46.30369,1,Unengaged,Low,Not Free,Very High,Very High,Level 4: Do Not Travel,A003,C0061,100187,Akhvakh,RUS,RS,,,,Central Asian Peoples,Yes,0,Unengaged and Unreached,"""<10","000""",Indigenous,RUS,akh-wakh
Akkin,akkin,Russian Federation,44000,Chechen,Islam - Sunni,43.095304,45.536548,1,Unengaged,Low,Not Free,Very High,Very High,Level 4: Do Not Travel,A003,C0061,116039,Akkin,RUS,RS,,,,Central Asian Peoples,Yes,0,Unengaged and Unreached,"""10","000+""",Indigenous,RUS,akkin
Akpes,akpes,Nigeria,22000,Akpes,Ethnoreligion - Animism,7.612468,5.861216,4,Unengaged,Strenuous,Partly Free,High,Very High,Level 3: Reconsider Travel,A013,C0233,100193,Akpes,NGA,NI,,,,Sub-Saharan African Peoples,Yes,2,No Longer Unreached,"""10","000+""",Indigenous,NGA,akpes
Akpet,akpet,Nigeria,20500,Ukpet-Ehom,Christianity - Non-Evangelical Protestant,5.58316,8.10047,5,Unengaged,Strenuous,Partly Free,High,Very High,Level 3: Reconsider Travel,A013,C0044,100194,Akpet-Ehom,NGA,NI,,,,Sub-Saharan African Peoples,Yes,2,No Longer Unreached,"""10","000+""",Indigenous,NGA,akpet
Akrukay,akru-kay,Papua New Guinea,550,Chini,Christianity - Roman Catholicism,-4.894,144.835,1,Unengaged,Strenuous,Partly Free,Low,Moderate,Level 3: Reconsider Travel,A010,C0152,100195,Akrukay,PNG,PP,,,,Asian Pacific Rim Peoples,Yes,0,Unengaged and Unreached,"""<10","000""",Indigenous,PNG,akr-ukay
Akto Turkmen,akto tur-kme-n,China,5200,Uyghur,Islam - Sunni,39.153385,75.938288,1,Unengaged,Medium,Not Free,Very High,Low,Other,A015,C0110,113982,"""Turkmen"," Akto""",CHN,CH,,,,Central Asian Peoples,Yes,0,Unengaged and Unreached,"""<10","000""",Indigenous,CHN,akto tur-kmen
Aku,aku,Gambia,19500,Krio,Christianity - Non-Evangelical Protestant,13.662,-15.057,4,Unengaged,Extreme,Partly Free,Low,Moderate,Level 2: Exercise Increased Caution,A013,C0173,116261,Aku,GMB,GA,,,,Sub-Saharan African Peoples,,2,No Longer Unreached,"""10","000+""",Diaspora,GMB,aku
Akurio,aku-rio,Brazil,40,Trió,Ethnoreligion,-1.75,-55.833333,1,Unengaged,Medium,Free,Low,Moderate,Level 2: Exercise Increased Caution,A007,C0201,100197,Akuliyo,BRA,BR,NS,,,American Peoples,,0,Unengaged and Unreached,"""<10","000""",Diaspora,BRA,akurio
Alabama,ala-bama,United States,800,English,Christianity - Non-Evangelical Protestant,30.76738,-94.62848,4,Unengaged,Little,Free,Moderate,High,Caution,A009,C0154,100205,Alabama-Coushatta,USA,US,,,,American Peoples,Yes,2,No Longer Unreached,"""<10","000""",Indigenous,USA,ala-bama
Alago,alago,Nigeria,120000,Alago,Ethnoreligion - Animism,8.34986,8.52085,4,Unengaged,Strenuous,Partly Free,High,Very High,Level 3: Reconsider Travel,A013,C0044,100209,Alago,NGA,NI,,,,Sub-Saharan African Peoples,Yes,2,No Longer Unreached,"""100","000+""",Indigenous,NGA,alago
Alak,alak,Laos,25500,Alak,Ethnoreligion - Animism,15.5565,106.59719,1,Unengaged,Strenuous,Not Free,High,Moderate,Level 2: Exercise Increased Caution,A011,C0147,100212,Alak,LAO,LA,,,,Asian Pacific Rim Peoples,Yes,0,Unengaged and Unreached,"""10","000+""",Indigenous,LAO,alak
Alas,alas,Indonesia,265000,Batak Alas-Kluet,Islam - Sunni,3.448098,97.831208,1,Unengaged,Medium,Partly Free,Very High,High,Level 2: Exercise Increased Caution,A008,C0002,100215,Alas,IDN,ID,,,,Asian Pacific Rim Peoples,Yes,0,Unengaged and Unreached,"""100","000+""",Indigenous,IDN,alas
Alavan,ala-van,India,9800,Tamil,Hinduism,8.32352,77.332442,1,Unengaged,Strenuous,Partly Free,High,Very High,Level 2: Exercise Increased Caution,A012,C0311,111309,Alavan,IND,IN,,,,South Asian Peoples,Yes,0,Unengaged and Unreached,"""<10","000""",Indigenous,IND,alavan
Alawites,ala-wite-s,Lebanon,85000,Levantine Arabic,Islam - Shia,34.544,36.076,1,Unengaged,Medium,Partly Free,Moderate,High,Level 3: Reconsider Travel,A001,C0015,114499,Alawite,LBN,LE,SY,,,Northern African and Middle Eastern Peoples,,0,Unengaged and Unreached,"""50","000+""",Indigenous,LBN,alaw-ites
Alawites,ala-wite-s,Türkiye,1295000,Levantine Arabic,Islam - Shia,37.1398,38.7924,1,Unengaged,Low,Not Free,High,High,Level 2: Exercise Increased Caution,A001,C0015,114499,Alawite,TUR,TU,,,,Northern African and Middle Eastern Peoples,,0,Unengaged and Unreached,"""1",000,"000+""",Indigenous,TUR,alaw-ites
Albanian,alba-nee--uh-n,Austria,23500,Tosk Albanian,Islam - Folk,48.183284,16.371204,1,Unengaged,Little,Free,Moderate,High,Level 1: Exercise Normal Precautions,A003,C0008,103338,"""Albanian"," Gheg""",AUT,AU,KV,,,European Peoples,,0,Unengaged and Unreached,"""10","000+""",Diaspora,AUT,alba-nian
Albanian,alba-nee--uh-n,Montenegro,49500,Gheg Albanian,Islam - Folk,42.440512,19.261996,1,Unengaged,Low,Partly Free,Low,Moderate,Level 1: Exercise Normal Precautions,A003,C0008,103338,"""Albanian"," Gheg""",MNE,MJ,KV,,,European Peoples,,0,Unengaged and Unreached,"""10","000+""",Diaspora,MNE,alba-nian
Albanian,alba-nee--uh-n,Switzerland,114000,Tosk Albanian,Islam - Folk,47.5475,7.6023,1,Unengaged,Little,Free,Low,High,Level 1: Exercise Normal Precautions,A003,C0008,100222,"""Albanian"," Tosk""",CHE,SZ,AL,,,European Peoples,,0,Unengaged and Unreached,"""100","000+""",Diaspora,CHE,alba-nian
Albanian,alba-nee--uh-n,United Kingdom,42000,Tosk Albanian,Islam - Folk,51.57485,-0.386123,1,Unengaged,Little,Free,Moderate,High,Level 2: Exercise Increased Caution,A003,C0008,100222,"""Albanian"," Tosk""",GBR,UK,AL,,,European Peoples,,0,Unengaged and Unreached,"""10","000+""",Diaspora,GBR,alba-nian
Ale,ale,Ethiopia,71000,Ale,Ethnoreligion - Animism,5.4341,37.2327,1,Unengaged,Extreme,Not Free,Moderate,Moderate,Level 3: Reconsider Travel,A004,C0276,103260,Gawwada,ETH,ET,,,,Northern African and Middle Eastern Peoples,Yes,0,Unengaged and Unreached,"""50","000+""",Indigenous,ETH,ale
Alege,alege,Nigeria,21000,Elege,Christianity - Non-Evangelical Protestant,6.59423,9.00394,4,Unengaged,Strenuous,Partly Free,High,Very High,Level 3: Reconsider Travel,A013,C0044,100224,Alege,NGA,NI,,,,Sub-Saharan African Peoples,Yes,2,No Longer Unreached,"""10","000+""",Indigenous,NGA,alege
Alehemir,ale-hemi-r,Sudan,2000,Undetermined,Islam - Sunni,10.796194,30.26875,0,Unengaged,Strenuous,Not Free,High,Moderate,Level 4: Do Not Travel,A013,C0156,119383,Alehemir,SDN,SU,,,,Northern African and Middle Eastern Peoples,Yes,0,Unengaged and Unreached,"""<10","000""",Indigenous,SDN,aleh-emir
Algonquin,algo-nqui-n,Canada,2300,Algonquin,Christianity - Roman Catholicism,46.364219,-76.017436,5,Unengaged,Little,Free,Low,Moderate,Level 1: Exercise Normal Precautions,A009,C0154,100227,Algonquin,CAN,CA,,,,American Peoples,Yes,2,No Longer Unreached,"""<10","000""",Indigenous,CAN,algo-nquin
Alia,alia,India,6500,Malvi,Hinduism,19.615,84.6518,1,Unengaged,Strenuous,Partly Free,High,Very High,Level 2: Exercise Increased Caution,A012,C0343,111310,"""Kachchi"," Alia""",IND,IN,,,,South Asian Peoples,Yes,0,Unengaged and Unreached,"""<10","000""",Indigenous,IND,alia
Aling,aling,China,9200,Wusa Nasu,Ethnoreligion,24.8991,103.9697,1,Unengaged,Medium,Not Free,Very High,Low,Other,A014,C0229,113983,Aling,CHN,CH,,,,Asian Pacific Rim Peoples,Yes,0,Unengaged and Unreached,"""<10","000""",Indigenous,CHN,aling
Allar,allar,India,15000,Malayalam,Hinduism,11.049283,76.084633,1,Unengaged,Strenuous,Partly Free,High,Very High,Level 2: Exercise Increased Caution,A012,C0311,115684,Allar,IND,IN,,,,South Asian Peoples,Yes,0,Unengaged and Unreached,"""10","000+""",Indigenous,IND,allar
Alu,alu,China,9000,Eastern Nisu,Ethnoreligion - Chinese Folk Religion,22.883344,102.744099,1,Unengaged,Medium,Not Free,Very High,Low,Other,A014,C0229,114830,Alu,CHN,CH,,,,Asian Pacific Rim Peoples,Yes,0,Unengaged and Unreached,"""<10","000""",Indigenous,CHN,alu
Alu,alu,Laos,7800,Eastern Nisu,Ethnoreligion - Chinese Folk Religion,22.255026,101.678586,1,Unengaged,Strenuous,Not Free,High,Moderate,Level 2: Exercise Increased Caution,A014,C0229,114830,Alu,LAO,LA,CH,,,Asian Pacific Rim Peoples,Yes,0,Unengaged and Unreached,"""<10","000""",Diaspora,LAO,alu
Aluku,aluku,French Guiana,3600,Aukan,Christianity - Folk Catholicism,4.270562,-54.380529,5,Unengaged,Medium,Free,Moderate,High,Level 1: Exercise Normal Precautions,A009,C0254,116086,Aluku,GUF,FG,,,,American Peoples,Yes,2,No Longer Unreached,"""<10","000""",Indigenous,GUF,aluku
Alune,alune,Indonesia,22500,Alune,Christianity - Evangelical Protestant,-3.087912,128.496095,6,Unengaged,Medium,Partly Free,Very High,High,Level 2: Exercise Increased Caution,A008,C0130,100237,Alune,IDN,ID,,,,Asian Pacific Rim Peoples,Yes,2,No Longer Unreached,"""10","000+""",Indigenous,IDN,alune
Alur,alur,Uganda,1240000,Alur,Christianity - Roman Catholicism,2.43602,31.17437,1,Unengaged,Strenuous,Not Free,Moderate,High,Level 3: Reconsider Travel,A013,C0153,100238,Alur,UGA,UG,CG,,,Sub-Saharan African Peoples,,0,Unengaged and Unreached,"""1",000,"000+""",Indigenous,UGA,alur
Ama,ama,Papua New Guinea,1400,Sawiyanu,Ethnoreligion - Animism,-4.20192,141.65793,6,Unengaged,Strenuous,Partly Free,Low,Moderate,Level 3: Reconsider Travel,A010,C0152,100243,Ama,PNG,PP,,,,Asian Pacific Rim Peoples,Yes,2,No Longer Unreached,"""<10","000""",Indigenous,PNG,ama
Amahei,ama-hei,Indonesia,60,Indonesian,Islam - Sunni,-3.34,128.925,6,Unengaged,Medium,Partly Free,Very High,High,Level 2: Exercise Increased Caution,A008,C0130,100244,Amahei,IDN,ID,,,,Asian Pacific Rim Peoples,Yes,2,No Longer Unreached,"""<10","000""",Indigenous,IDN,amahei
Amahuaca,ama-hua-ca,Brazil,275,Amahuaca,Ethnoreligion,-9.3604,-70.6064,6,Unengaged,Medium,Free,Low,Moderate,Level 2: Exercise Increased Caution,A007,C0201,100245,Amahuaca,BRA,BR,PE,,,American Peoples,Yes,2,No Longer Unreached,"""<10","000""",Indigenous,BRA,amah-uaca
Amahuaca,ama-hua-ca,Peru,300,Amahuaca,Ethnoreligion - Animism,-9.5292,-72.7528,1,Unengaged,Medium,Partly Free,Moderate,Low,Level 2: Exercise Increased Caution,A007,C0201,100245,Amahuaca,PER,PE,,,,American Peoples,Yes,0,Unengaged and Unreached,"""<10","000""",Indigenous,PER,amah-uaca
Amaimon,amai-mon,Papua New Guinea,3100,Amaimon,Christianity - Evangelical Protestant,-5.18742,145.36845,6,Unengaged,Strenuous,Partly Free,Low,Moderate,Level 3: Reconsider Travel,A010,C0152,100246,Amaimon,PNG,PP,,,,Asian Pacific Rim Peoples,Yes,2,No Longer Unreached,"""<10","000""",Indigenous,PNG,ama-imon
Amal,amal,Papua New Guinea,1800,Amal,Ethnoreligion - Animism,-4.04517,141.9952,6,Unengaged,Strenuous,Partly Free,Low,Moderate,Level 3: Reconsider Travel,A010,C0152,100247,Amal,PNG,PP,,,,Asian Pacific Rim Peoples,Yes,2,No Longer Unreached,"""<10","000""",Indigenous,PNG,amal
Amanab,ama-nab,Papua New Guinea,9300,Amanab,Christianity - Evangelical Protestant,-3.51516,141.17783,6,Unengaged,Strenuous,Partly Free,Low,Moderate,Level 3: Reconsider Travel,A010,C0152,100249,Amanab,PNG,PP,,,,Asian Pacific Rim Peoples,Yes,2,No Longer Unreached,"""<10","000""",Indigenous,PNG,amanab
Amanaye,ama-naye,Brazil,125,Portuguese,Ethnoreligion,-3.2873,-48.4046,1,Unengaged,Medium,Free,Low,Moderate,Level 2: Exercise Increased Caution,A007,C0083,100250,Amanaye,BRA,BR,,,,American Peoples,Yes,0,Unengaged and Unreached,"""<10","000""",Indigenous,BRA,ama-naye
Amarakaire,ama-rakai-re,Peru,2000,Amarakaeri,Ethnoreligion - Animism,-13.0615,-70.3439,1,Unengaged,Medium,Partly Free,Moderate,Low,Level 2: Exercise Increased Caution,A007,C0201,100255,Amarakaire,PER,PE,,,,American Peoples,Yes,0,Unengaged and Unreached,"""<10","000""",Indigenous,PER,amara-kaire
Amaruwa,ama-ruwa,Colombia,475,Cuiba,Ethnoreligion,6.0814,-69.9498,1,Unengaged,Medium,Free,Moderate,Moderate,Level 3: Reconsider Travel,A007,C0201,116072,Amaruwa,COL,CO,,,,American Peoples,Yes,0,Unengaged and Unreached,"""<10","000""",Indigenous,COL,ama-ruwa
Amazigh,ah-mah-zigh,Netherlands,167000,Central Atlas Tamazight,Islam - Sunni,52.345922,4.791064,1,Unengaged,Little,Free,Low,Moderate,Level 2: Exercise Increased Caution,A001,C0047,101275,"""Amazigh"," Riffian""",NLD,NL,MO,,,Northern African and Middle Eastern Peoples,,0,Unengaged and Unreached,"""100","000+""",Diaspora,NLD,ah-mah-zigh
Amazigh,ah-mah-zigh,France,150000,Central Atlas Tamazight,Islam - Sunni,49.005397,2.21363,1,Unengaged,Little,Free,Moderate,High,Level 2: Exercise Increased Caution,A001,C0049,104002,Amazigh,FRA,FR,,,,Northern African and Middle Eastern Peoples,,0,Unengaged and Unreached,"""100","000+""",Diaspora,FRA,ah-mah-zigh
Amazigh,ah-mah-zigh,United Kingdom,3400,Central Atlas Tamazight,Islam - Sunni,51.537269,-0.053662,1,Unengaged,Little,Free,Moderate,High,Level 2: Exercise Increased Caution,A001,C0049,104002,Amazigh,GBR,UK,MO,,,Northern African and Middle Eastern Peoples,,0,Unengaged and Unreached,"""<10","000""",Diaspora,GBR,ah-mah-zigh
"""Amazigh",ah-mah-zigh,,Algeria,84000,Central Atlas Tamazight,Islam - Sunni,32.0461,-1.2459,1,Unengaged,Medium,Not Free,Very High,High,Level 2: Exercise Increased Caution,A001,C0045,103014,"""Amazigh"," Figig""",DZA,AG,,,,Northern African and Middle Eastern Peoples,Yes,0,Unengaged and Unreached,"""50","000+""",Indigenous,DZA,ah-mah-zigh figig
"""Amazigh",ah-mah-zigh,,Morocco,76500,Moroccan Arabic,Islam - Sunni,35.013,-4.99,1,Unengaged,Strenuous,Partly Free,High,Moderate,Level 2: Exercise Increased Caution,A001,C0047,103344,"""Amazigh"," Ghomara""",MAR,MO,,,,Northern African and Middle Eastern Peoples,Yes,0,Unengaged and Unreached,"""50","000+""",Indigenous,MAR,ah-mah-zigh gho-mara
"""Amazigh",ah-mah-zigh,,Algeria,13000,Taznatit,Islam - Sunni,32.4872,3.6814,1,Unengaged,Medium,Not Free,Very High,High,Level 2: Exercise Increased Caution,A001,C0045,116098,"""Amazigh"," Gourara""",DZA,AG,,,,Northern African and Middle Eastern Peoples,Yes,0,Unengaged and Unreached,"""10","000+""",Indigenous,DZA,ah-mah-zigh gou-rara
"""Amazigh",ah-mah-zigh,,Libya,44500,Hassaniyya,Islam - Sunni,29.0246,21.5585,1,Unengaged,Medium,Not Free,High,High,Level 4: Do Not Travel,A001,C0045,104164,"""Amazigh"," Jalo""",LBY,LY,,,,Northern African and Middle Eastern Peoples,Yes,0,Unengaged and Unreached,"""10","000+""",Indigenous,LBY,ah-mah-zigh jalo
"""Amazigh",ah-mah-zigh,,Libya,29500,Libyan Arabic,Islam - Sunni,27.8118,16.3859,1,Unengaged,Medium,Not Free,High,High,Level 4: Do Not Travel,A001,C0045,104291,"""Amazigh"," Jofra""",LBY,LY,,,,Northern African and Middle Eastern Peoples,Yes,0,Unengaged and Unreached,"""10","000+""",Indigenous,LBY,ah-mah-zigh jofra
"""Amazigh",ah-mah-zigh,,Algeria,23500,Central Atlas Tamazight,Islam - Sunni,36.5954,2.1869,1,Unengaged,Medium,Not Free,Very High,High,Level 2: Exercise Increased Caution,A001,C0049,106536,"""Amazigh"," Menasser""",DZA,AG,,,,Northern African and Middle Eastern Peoples,Yes,0,Unengaged and Unreached,"""10","000+""",Indigenous,DZA,ah-mah-zigh mena-sser
"""Amazigh",ah-mah-zigh,,Libya,190000,Nafusi,Islam - Sunni,31.9293,12.2484,1,Unengaged,Medium,Not Free,High,High,Level 4: Do Not Travel,A001,C0045,104139,"""Amazigh"," Jabal Nafusah""",LBY,LY,,,,Northern African and Middle Eastern Peoples,Yes,0,Unengaged and Unreached,"""100","000+""",Indigenous,LBY,ah-mah-zigh nefusa
"""Amazigh",ah-mah-zigh,,France,136000,Tarifit,Islam - Sunni,48.729309,2.593782,1,Unengaged,Little,Free,Moderate,High,Level 2: Exercise Increased Caution,A001,C0047,101275,"""Amazigh"," Riffian""",FRA,FR,,,,Northern African and Middle Eastern Peoples,,0,Unengaged and Unreached,"""100","000+""",Diaspora,FRA,ah-mah-zigh riffi
"""Amazigh",ah-mah-zigh,,Egypt,25000,Siwi,Islam - Sunni,29.20228,25.51974,0,Unengaged,Medium,Not Free,Very High,Very High,Level 3: Reconsider Travel,A001,C0045,109343,Siwa,EGY,EG,,,,Northern African and Middle Eastern Peoples,Yes,0,Unengaged and Unreached,"""10","000+""",Indigenous,EGY,ah-mah-zigh siwa
"""Amazigh",ah-mah-zigh,,Algeria,1200,Algerian Arabic,Islam - Sunni,27.01903,1.86218,1,Unengaged,Medium,Not Free,Very High,High,Level 2: Exercise Increased Caution,A001,C0045,110042,"""Amazigh"," Tidikelt""",DZA,AG,,,,Northern African and Middle Eastern Peoples,Yes,0,Unengaged and Unreached,"""<10","000""",Indigenous,DZA,ah-mah-zigh tidi-kelt
"""Amazigh",ah-mah-zigh,,Algeria,32500,Taznatit,Islam - Sunni,27.878119,-0.282987,1,Unengaged,Medium,Not Free,Very High,High,Level 2: Exercise Increased Caution,A001,C0045,116099,"""Amazigh"," Tuat""",DZA,AG,,,,Northern African and Middle Eastern Peoples,Yes,0,Unengaged and Unreached,"""10","000+""",Indigenous,DZA,ah-mah-zigh tuat
Amba,amba,Uganda,60000,Amba (Uganda),Ethnoreligion - Animism,0.7964,30.1463,1,Unengaged,Strenuous,Not Free,Moderate,High,Level 3: Reconsider Travel,A013,C0258,100259,Amba,UGA,UG,,,,Sub-Saharan African Peoples,,0,Unengaged and Unreached,"""50","000+""",Indigenous,UGA,amba
Ambalavasi,amba-lava-si,India,214000,Malayalam,Hinduism,9.98,76.28,1,Unengaged,Strenuous,Partly Free,High,Very High,Level 2: Exercise Increased Caution,A012,C0311,111316,Ambalavasi,IND,IN,,,,South Asian Peoples,Yes,0,Unengaged and Unreached,"""100","000+""",Indigenous,IND,ambal-avasi
Ambasi,amba-si,Papua New Guinea,4100,Binandere,Christianity - Evangelical Protestant,-8.0728,147.9767,6,Unengaged,Strenuous,Partly Free,Low,Moderate,Level 3: Reconsider Travel,A010,C0152,100265,"""Ambasi"," Tain-Daware""",PNG,PP,,,,Asian Pacific Rim Peoples,Yes,2,No Longer Unreached,"""<10","000""",Indigenous,PNG,ambasi
Ambelau,ambe-lau,Indonesia,8800,Ambelau,Islam - Sunni,-3.662,127.1539,1,Unengaged,Medium,Partly Free,Very High,High,Level 2: Exercise Increased Caution,A008,C0130,100268,Ambelau,IDN,ID,,,,Asian Pacific Rim Peoples,Yes,0,Unengaged and Unreached,"""<10","000""",Indigenous,IDN,amb-elau
Amber,amber,Indonesia,1000,Ambel,Christianity - Evangelical Protestant,-0.4195,130.8228,6,Unengaged,Medium,Partly Free,Very High,High,Level 2: Exercise Increased Caution,A010,C0152,100270,Amber,IDN,ID,,,,Asian Pacific Rim Peoples,Yes,2,No Longer Unreached,"""<10","000""",Indigenous,IDN,amber
Ambo,ambo,Nigeria,3200,Ambo,Christianity - Non-Evangelical Protestant,7.07638,10.76978,5,Unengaged,Strenuous,Partly Free,High,Very High,Level 3: Reconsider Travel,A013,C0044,100273,Ambo,NGA,NI,,,,Sub-Saharan African Peoples,Yes,2,No Longer Unreached,"""<10","000""",Indigenous,NGA,ambo
Ambonese,ambo-nee-z,Netherlands,51000,Ambonese Malay,Islam - Sunni,52.070814,4.298807,4,Unengaged,Little,Free,Low,Moderate,Level 2: Exercise Increased Caution,A008,C0130,100274,Ambonese,NLD,NL,ID,,,Asian Pacific Rim Peoples,,2,No Longer Unreached,"""50","000+""",Diaspora,NLD,ambo-nese
"""Ambrym",amb-rym,,Vanuatu,6300,Southeast Ambrym,Ethnoreligion,-16.337083,168.296014,6,Unengaged,Strenuous,Free,Low,Moderate,Level 1: Exercise Normal Precautions,A010,C0227,100276,"""Ambrym"," Southeast""",VUT,NH,,,,Asian Pacific Rim Peoples,Yes,2,No Longer Unreached,"""<10","000""",Indigenous,VUT,ambrym south--east
Ambul,ambul,Papua New Guinea,2500,Ambul,Christianity - Evangelical Protestant,-6.29002,149.96031,6,Unengaged,Strenuous,Partly Free,Low,Moderate,Level 3: Reconsider Travel,A010,C0152,100277,Ambul,PNG,PP,,,,Asian Pacific Rim Peoples,Yes,2,No Longer Unreached,"""<10","000""",Indigenous,PNG,ambul
Amele,amele,Papua New Guinea,15500,Amele,Christianity - Evangelical Protestant,-5.29126,145.68676,6,Unengaged,Strenuous,Partly Free,Low,Moderate,Level 3: Reconsider Travel,A010,C0152,100282,Amele,PNG,PP,,,,Asian Pacific Rim Peoples,Yes,2,No Longer Unreached,"""10","000+""",Indigenous,PNG,amele
American,uh-mer-i-kuhn,Curacao,1000,English,Christianity - Non-Evangelical Protestant,12.105355,-68.930368,6,Unengaged,Medium,Free,Low,Moderate,Level 1: Exercise Normal Precautions,A009,C0011,110448,"""American"," U.S.""",CUW,UC,US,,,American Peoples,,2,No Longer Unreached,"""<10","000""",Diaspora,CUW,amer-ican
American,uh-mer-i-kuhn,Dominican Republic,94000,English,Christianity - Folk Catholicism,18.501,-69.898,5,Unengaged,Medium,Partly Free,Low,Low,Level 2: Exercise Increased Caution,A009,C0011,110448,"""American"," U.S.""",DOM,DR,US,,,American Peoples,,2,No Longer Unreached,"""50","000+""",Diaspora,DOM,amer-ican
American,uh-mer-i-kuhn,Fiji,4500,English,Christianity - Non-Evangelical Protestant,-18.145217,178.433862,6,Unengaged,Medium,Partly Free,Moderate,Low,Level 1: Exercise Normal Precautions,A009,C0011,110448,"""American"," U.S.""",FJI,FJ,US,,,American Peoples,,2,No Longer Unreached,"""<10","000""",Diaspora,FJI,amer-ican
American,uh-mer-i-kuhn,Greenland,3400,English,Christianity - Non-Evangelical Protestant,64.17464,-51.735244,6,Unengaged,Little,Free,Moderate,Moderate,Caution,A009,C0011,110448,"""American"," U.S.""",GRL,GL,US,,,American Peoples,,2,No Longer Unreached,"""<10","000""",Diaspora,GRL,amer-ican
American,uh-mer-i-kuhn,Guam,14000,English,Christianity - Folk Catholicism,13.5278,144.8625,6,Unengaged,,,,,Caution,A009,C0011,110448,"""American"," U.S.""",GUM,GQ,,,,American Peoples,,2,No Longer Unreached,"""10","000+""",Diaspora,GUM,amer-ican
American,uh-mer-i-kuhn,Haiti,18000,English,Christianity - Non-Evangelical Protestant,18.57,-72.2885,6,Unengaged,Strenuous,Not Free,Low,Moderate,Level 4: Do Not Travel,A009,C0011,110448,"""American"," U.S.""",HTI,HA,US,,,American Peoples,,2,No Longer Unreached,"""10","000+""",Diaspora,HTI,amer-ican
American,uh-mer-i-kuhn,Iceland,1700,English,Christianity - Evangelical Protestant,64.140069,-21.919185,6,Unengaged,Little,Free,Moderate,Low,Level 1: Exercise Normal Precautions,A009,C0011,110448,"""American"," U.S.""",ISL,IC,US,,,American Peoples,,2,No Longer Unreached,"""<10","000""",Diaspora,ISL,amer-ican
American,uh-mer-i-kuhn,New Zealand,14500,English,Christianity - Evangelical Protestant,-36.914608,174.684851,6,Unengaged,Little,Free,Low,Low,Level 1: Exercise Normal Precautions,A009,C0011,110448,"""American"," U.S.""",NZL,NZ,US,,,American Peoples,,2,No Longer Unreached,"""10","000+""",Diaspora,NZL,amer-ican
American,uh-mer-i-kuhn,Panama,182000,English,Christianity - Folk Catholicism,9.0005,-79.5294,6,Unengaged,Low,Free,Low,Low,Level 2: Exercise Increased Caution,A009,C0011,110448,"""American"," U.S.""",PAN,PM,,,,American Peoples,,2,No Longer Unreached,"""100","000+""",Diaspora,PAN,amer-ican
American,uh-mer-i-kuhn,Virgin Islands,15500,English,Christianity - Folk Catholicism,18.35,-64.95,6,Unengaged,,,,,Caution,A009,C0011,110448,"""American"," U.S.""",VIR,VQ,,,,American Peoples,,2,No Longer Unreached,"""10","000+""",Diaspora,VIR,amer-ican
American Samoa Deaf,uh-mer-i-kuhn samoa def,American Samoa,450,Undetermined,Unknown,-14.279,-170.7,0,Unengaged,,,,,Caution,A017,C0252,114916,Deaf,ASM,AQ,,,,Deaf Peoples,,0,Unengaged and Unreached,"""<10","000""",Indigenous,ASM,amer-ican samoa def
American Samoan,uh-mer-i-kuhn samoa-n,United States,68000,Samoan,Christianity - Non-Evangelical Protestant,34.063343,-118.354606,6,Unengaged,Little,Free,Moderate,High,Caution,A010,C0180,108580,Samoan,USA,US,WS,,,Asian Pacific Rim Peoples,,2,No Longer Unreached,"""50","000+""",Diaspora,USA,amer-ican samoan
Americo-Liberian,ame-rico--li-beree--uh-n,Liberia,166000,Liberian English,Christianity - Non-Evangelical Protestant,6.3259,-10.6312,6,Unengaged,Extreme,Partly Free,Low,Low,Level 2: Exercise Increased Caution,A013,C0173,100289,Americo-Liberian,LBR,LI,,,,Sub-Saharan African Peoples,Yes,2,No Longer Unreached,"""100","000+""",Indigenous,LBR,americo--liberian
Amhara,amha-ra,Canada,13500,Amharic,Christianity - Eastern Orthodox,43.722638,-79.530988,6,Unengaged,Little,Free,Low,Moderate,Level 1: Exercise Normal Precautions,A004,C0068,100293,Amhara,CAN,CA,ET,,,Northern African and Middle Eastern Peoples,,2,No Longer Unreached,"""10","000+""",Diaspora,CAN,amhara
Amhara,amha-ra,Egypt,4000,Amharic,Christianity - Eastern Orthodox,31.227698,29.974422,1,Unengaged,Medium,Not Free,Very High,Very High,Level 3: Reconsider Travel,A004,C0068,100293,Amhara,EGY,EG,ET,,,Northern African and Middle Eastern Peoples,,0,Unengaged and Unreached,"""<10","000""",Diaspora,EGY,amhara
Ampale,ampa-le,Papua New Guinea,5000,Safeyoka,Christianity - Evangelical Protestant,-7.021455,145.970168,6,Unengaged,Strenuous,Partly Free,Low,Moderate,Level 3: Reconsider Travel,A010,C0152,100302,Ampale,PNG,PP,,,,Asian Pacific Rim Peoples,Yes,2,No Longer Unreached,"""<10","000""",Indigenous,PNG,ampale
Amto,amto,Papua New Guinea,550,Amto,Ethnoreligion - Animism,-4.12165,141.33941,6,Unengaged,Strenuous,Partly Free,Low,Moderate,Level 3: Reconsider Travel,A010,C0152,100306,Amto,PNG,PP,,,,Asian Pacific Rim Peoples,Yes,2,No Longer Unreached,"""<10","000""",Indigenous,PNG,amto
Amundava,amu-nda-va,Brazil,200,Amundava,Ethnoreligion,-8.5902,-61.1613,1,Unengaged,Medium,Free,Low,Moderate,Level 2: Exercise Increased Caution,A007,C0083,100301,Amundava,BRA,BR,,,,American Peoples,Yes,0,Unengaged and Unreached,"""<10","000""",Indigenous,BRA,amun-dava
"""Amuzgo",amu-zgo,,Mexico,78000,Guerrero Amuzgo,Christianity - Folk Catholicism,16.794444,-98.240556,4,Unengaged,Medium,Partly Free,Moderate,High,Other,A007,C0144,103527,"""Amuzgo"," Guerrero""",MEX,MX,,,,American Peoples,Yes,2,No Longer Unreached,"""50","000+""",Indigenous,MEX,amuzgo guer-rero
"""Amuzgo",amu-zgo,,Mexico,1200,Spanish,Christianity - Folk Catholicism,16.635556,-98.032778,4,Unengaged,Medium,Partly Free,Moderate,High,Other,A007,C0144,108671,"""Amuzgo"," Ipalapa""",MEX,MX,,,,American Peoples,Yes,2,No Longer Unreached,"""<10","000""",Indigenous,MEX,amuzgo ipa-lapa
"""Amuzgo",amu-zgo,,Mexico,7000,San Pedro Amuzgos Amuzgo,Christianity - Folk Catholicism,16.653611,-98.088889,4,Unengaged,Medium,Partly Free,Moderate,High,Other,A007,C0144,107578,"""Amuzgo"," San Pedro Amuzgos""",MEX,MX,,,,American Peoples,Yes,2,No Longer Unreached,"""<10","000""",Indigenous,MEX,amuzgo san pedro amu-zgos
Anakalangu,ana-kala-ngu,Indonesia,17500,Anakalangu,Christianity - Evangelical Protestant,-9.63425,119.60465,6,Unengaged,Medium,Partly Free,Very High,High,Level 2: Exercise Increased Caution,A008,C0075,100312,Anakalangu,IDN,ID,,,,Asian Pacific Rim Peoples,Yes,2,No Longer Unreached,"""10","000+""",Indigenous,IDN,anaka-langu
Anambe,ana-mbe,Brazil,125,Portuguese,Ethnoreligion - Animism,-2.841756,-49.314521,1,Unengaged,Medium,Free,Low,Moderate,Level 2: Exercise Increased Caution,A007,C0083,100315,Anambe,BRA,BR,,,,American Peoples,Yes,0,Unengaged and Unreached,"""<10","000""",Indigenous,BRA,anambe
Anatolian Turk,ana-tolee--uh-n turk,Iraq,43000,Turkish,Islam - Sunni,33.3351,44.3497,1,Unengaged,Strenuous,Not Free,High,Very High,Level 4: Do Not Travel,A015,C0221,113818,Turk,IRQ,IZ,TU,,,Central Asian Peoples,,0,Unengaged and Unreached,"""10","000+""",Indigenous,IRQ,anat-olian turk
Andamanese,anda-manee-z,India,11500,Andaman Hindi Creole,Hinduism,11.623377,92.726483,1,Unengaged,Strenuous,Partly Free,High,Very High,Level 2: Exercise Increased Caution,A012,C0333,111328,Andamanese,IND,IN,,,,South Asian Peoples,Yes,0,Unengaged and Unreached,"""10","000+""",Indigenous,IND,andam-anese
Andhra Vaisnawa,and-hra vai-sna-wa,India,5100,Telugu,Hinduism,17.32125,82.040714,1,Unengaged,Strenuous,Partly Free,High,Very High,Level 2: Exercise Increased Caution,A012,C0294,118860,Andhra Vaishnava,IND,IN,,,,South Asian Peoples,Yes,0,Unengaged and Unreached,"""<10","000""",Indigenous,IND,andhra vais-nawa
Andi,andi,Russian Federation,40000,Andi,Islam - Sunni,42.80785,46.29187,1,Unengaged,Low,Not Free,Very High,Very High,Level 4: Do Not Travel,A003,C0061,100328,Andi,RUS,RS,,,,Central Asian Peoples,Yes,0,Unengaged and Unreached,"""10","000+""",Indigenous,RUS,andi
Andio,andio,Indonesia,2500,Andio,Islam - Sunni,-0.853,123.144,6,Unengaged,Medium,Partly Free,Very High,High,Level 2: Exercise Increased Caution,A008,C0103,100330,Andio,IDN,ID,,,,Asian Pacific Rim Peoples,Yes,2,No Longer Unreached,"""<10","000""",Indigenous,IDN,andio
Andoque,ando-que,Colombia,500,Spanish,Ethnoreligion,-0.618,-72.2592,5,Unengaged,Medium,Free,Moderate,Moderate,Level 3: Reconsider Travel,A007,C0201,100332,Andoque,COL,CO,,,,American Peoples,Yes,2,No Longer Unreached,"""<10","000""",Indigenous,COL,and-oque
Andorran,ando-rra-n,Andorra,44500,Catalan,Unaffiliated,42.54865,1.60125,1,Unengaged,Low,Free,Low,Low,Level 1: Exercise Normal Precautions,A003,C0202,101896,Catalonian,AND,AN,SP,,,European Peoples,,0,Unengaged and Unreached,"""10","000+""",Indigenous,AND,ando-rran
Anfillo,anfi-llo,Ethiopia,2500,West Central Oromo,Islam - Sunni,8.671698,34.520723,1,Unengaged,Extreme,Not Free,Moderate,Moderate,Level 3: Reconsider Travel,A004,C0161,100342,Anfillo,ETH,ET,,,,Northern African and Middle Eastern Peoples,Yes,0,Unengaged and Unreached,"""<10","000""",Indigenous,ETH,anf-illo
Angaatiha,angaa-tiha,Papua New Guinea,4400,Angaataha,Christianity - Evangelical Protestant,-7.15012,146.35192,6,Unengaged,Strenuous,Partly Free,Low,Moderate,Level 3: Reconsider Travel,A010,C0152,100343,Angaatiha,PNG,PP,,,,Asian Pacific Rim Peoples,Yes,2,No Longer Unreached,"""<10","000""",Indigenous,PNG,anga-atiha
Angarok,anga-rok,India,6700,Bengali,Hinduism,23.332078,86.365208,1,Unengaged,Strenuous,Partly Free,High,Very High,Level 2: Exercise Increased Caution,A012,C0311,111359,Angarok,IND,IN,,,,South Asian Peoples,Yes,0,Unengaged and Unreached,"""<10","000""",Indigenous,IND,ang-arok
Angaua,angaua,Papua New Guinea,5400,Nend,Christianity - Evangelical Protestant,-5.04271,144.88584,6,Unengaged,Strenuous,Partly Free,Low,Moderate,Level 3: Reconsider Travel,A010,C0152,100348,Angaua,PNG,PP,,,,Asian Pacific Rim Peoples,Yes,2,No Longer Unreached,"""<10","000""",Indigenous,PNG,angaua
Anggor,ang-gor,Papua New Guinea,3700,Angor,Christianity - Evangelical Protestant,-3.7167,141.19901,6,Unengaged,Strenuous,Partly Free,Low,Moderate,Level 3: Reconsider Travel,A010,C0152,100351,Anggor,PNG,PP,,,,Asian Pacific Rim Peoples,Yes,2,No Longer Unreached,"""<10","000""",Indigenous,PNG,anggor
Angku,angku,China,9000,Kon Keu,Buddhism - Theravada,21.9146,100.8305,1,Unengaged,Medium,Not Free,Very High,Low,Other,A011,C0147,114915,Angku,CHN,CH,,,,Asian Pacific Rim Peoples,Yes,0,Unengaged and Unreached,"""<10","000""",Indigenous,CHN,angku
Anglo-Australian,ang-lo-au-stra-lee--uh-n,Canada,44500,English,Unaffiliated,49.282729,-123.120738,4,Unengaged,,,,,,A003,C0012,100354,Anglo-Australian,CAN,CA,,,,European Peoples,,2,No Longer Unreached,"""10","000+""",Diaspora,CAN,anglo-au-stralian
Anglo-Australian,ang-lo-au-stra-lee--uh-n,Papua New Guinea,164000,English,Unaffiliated,-9.454472,147.188061,4,Unengaged,Strenuous,Partly Free,Low,Moderate,Level 3: Reconsider Travel,A003,C0012,100354,Anglo-Australian,PNG,PP,AS,,,European Peoples,,2,No Longer Unreached,"""100","000+""",Diaspora,PNG,anglo-au-stralian
Anglo-Australian,ang-lo-au-stra-lee--uh-n,United States,83500,English,Christianity - Roman Catholicism,38.58166,-121.49444,5,Unengaged,Little,Free,Moderate,High,Caution,A003,C0012,100354,Anglo-Australian,USA,US,,,,European Peoples,,2,No Longer Unreached,"""50","000+""",Diaspora,USA,anglo-au-stralian
Anglo-New Zealander,ang-lo--new zea-lan-der,Singapore,3100,English,Unaffiliated,1.298169,103.811156,4,Unengaged,Little,Partly Free,High,Moderate,Level 1: Exercise Normal Precautions,A003,C0012,100357,Anglo-New Zealander,SGP,SN,NZ,,,European Peoples,,2,No Longer Unreached,"""<10","000""",Diaspora,SGP,angl-o-new zeal-ander
Angolan,ango-lan,Belgium,7200,English,Christianity - Roman Catholicism,50.82813,4.354459,1,Unengaged,Little,Free,Moderate,Moderate,Level 2: Exercise Increased Caution,A013,C0173,100361,"""Angolan"," Mestizo""",BEL,BE,AO,,,Sub-Saharan African Peoples,Yes,0,Unengaged and Unreached,"""<10","000""",Diaspora,BEL,ang-olan
Angolan,ango-lan,Canada,3100,Portuguese,Ethnoreligion,43.7805,-79.3738,1,Unengaged,Little,Free,Low,Moderate,Level 1: Exercise Normal Precautions,A013,C0173,100361,"""Angolan"," Mestizo""",CAN,CA,,,,Sub-Saharan African Peoples,Yes,0,Unengaged and Unreached,"""<10","000""",Diaspora,CAN,ang-olan
Angolan,ango-lan,Netherlands,800,Portuguese,Christianity - Roman Catholicism,52.366717,4.877906,1,Unengaged,Little,Free,Low,Moderate,Level 2: Exercise Increased Caution,A013,C0173,100361,"""Angolan"," Mestizo""",NLD,NL,AO,,,Sub-Saharan African Peoples,Yes,0,Unengaged and Unreached,"""<10","000""",Diaspora,NLD,ang-olan
Angolan,ango-lan,Portugal,81000,Portuguese,Christianity - Non-Evangelical Protestant,38.721569,-9.214132,5,Unengaged,Low,Free,Low,Low,Level 1: Exercise Normal Precautions,A013,C0173,100361,"""Angolan"," Mestizo""",PRT,PO,,,,Sub-Saharan African Peoples,Yes,2,No Longer Unreached,"""50","000+""",Diaspora,PRT,ang-olan
Anguilla Deaf,angui-lla def,Anguilla,175,Undetermined,Christianity - Non-Evangelical Protestant,18.22,-63.05,0,Unengaged,Medium,Free,Moderate,High,Level 1: Exercise Normal Precautions,A017,C0252,114916,Deaf,AIA,AV,,,,Deaf Peoples,,0,Unengaged and Unreached,"""<10","000""",Indigenous,AIA,angu-illa def
Ani,ani,China,4900,Axi,Ethnoreligion - Chinese Folk Religion,23.755117,103.52517,1,Unengaged,Medium,Not Free,Very High,Low,Other,A014,C0229,113990,Ani,CHN,CH,,,,Asian Pacific Rim Peoples,Yes,0,Unengaged and Unreached,"""<10","000""",Indigenous,CHN,ani
Animpokoimo,ani-mpo-koi-mo,Brazil,45,Waiwai,Ethnoreligion,-0.166667,-57.583333,1,Unengaged,Medium,Free,Low,Moderate,Level 2: Exercise Increased Caution,A007,C0201,104634,Karahawyana,BRA,BR,,,,American Peoples,Yes,0,Unengaged and Unreached,"""<10","000""",Indigenous,BRA,animp-okoimo
Anjana,anja-na,India,51500,Malvi,Hinduism,23.179301,75.78491,1,Unengaged,Strenuous,Partly Free,High,Very High,Level 2: Exercise Increased Caution,A012,C0311,111302,Anjana,IND,IN,,,,South Asian Peoples,Yes,0,Unengaged and Unreached,"""50","000+""",Indigenous,IND,anjana
Anjana (Gujarati),anja-na (gu-jara-ti),India,339000,Gujarati,Hinduism,22.853458,72.145969,1,Unengaged,Strenuous,Partly Free,High,Very High,Level 2: Exercise Increased Caution,A012,C0311,118861,"""Anjana Patel"," Gujarati""",IND,IN,,,,South Asian Peoples,Yes,0,Unengaged and Unreached,"""100","000+""",Indigenous,IND,anjana (guja-rati)
Annaberg,anna-ber-g,Papua New Guinea,16500,Rao,Christianity - Evangelical Protestant,-4.85243,144.51119,6,Unengaged,Strenuous,Partly Free,Low,Moderate,Level 3: Reconsider Travel,A010,C0152,100368,Annaberg,PNG,PP,,,,Asian Pacific Rim Peoples,Yes,2,No Longer Unreached,"""10","000+""",Indigenous,PNG,anna-berg
Ansari-Momin (Bengali),ansa-ri--momi-n (be-nga-li),India,456000,Bengali,Islam - Sunni,22.884884,88.078183,1,Unengaged,Strenuous,Partly Free,High,Very High,Level 2: Exercise Increased Caution,A012,C0318,118693,"""Ansari-Momin"," Bengali""",IND,IN,,,,South Asian Peoples,Yes,0,Unengaged and Unreached,"""100","000+""",Indigenous,IND,ansari--momin (ben-gali)
Ansari-Momin (Kannada),ansa-ri--momi-n (ka-nna-da),India,8400,Kannada,Islam - Sunni,15.347303,76.154594,1,Unengaged,Strenuous,Partly Free,High,Very High,Level 2: Exercise Increased Caution,A012,C0318,118696,"""Ansari-Momin"," Kannada""",IND,IN,,,,South Asian Peoples,Yes,0,Unengaged and Unreached,"""<10","000""",Indigenous,IND,ansari--momin (kan-nada)
Ansari-Momin (Tamil),ansa-ri--momi-n (ta-mil-),India,2200,Tamil,Islam - Sunni,13.132112,80.289626,1,Unengaged,Strenuous,Partly Free,High,Very High,Level 2: Exercise Increased Caution,A012,C0318,118699,"""Ansari-Momin"," Tamil""",IND,IN,,,,South Asian Peoples,Yes,0,Unengaged and Unreached,"""<10","000""",Indigenous,IND,ansari--momin (ta-mil)
Ansari-Momin (Telugu),ansa-ri--momi-n (te-lugu-),India,137000,Telugu,Islam - Sunni,14.7817,78.5513,1,Unengaged,Strenuous,Partly Free,High,Very High,Level 2: Exercise Increased Caution,A012,C0318,118862,"""Ansari-Momin"," Telugu""",IND,IN,,,,South Asian Peoples,Yes,0,Unengaged and Unreached,"""100","000+""",Indigenous,IND,ansari--momin (tel-ugu)
Anthur Nair,ant-hur nair,India,167000,Malayalam,Hinduism,10.856025,76.271547,1,Unengaged,Strenuous,Partly Free,High,Very High,Level 2: Exercise Increased Caution,A012,C0295,118176,Anthur Nair,IND,IN,,,,South Asian Peoples,Yes,0,Unengaged and Unreached,"""100","000+""",Indigenous,IND,ant-h-ur nair
Antigua Deaf,anti-gua def,Antigua and Barbuda,1000,Undetermined,Unknown,17.116,-61.85,0,Unengaged,Medium,Free,Low,Low,Level 1: Exercise Normal Precautions,A017,C0252,114916,Deaf,ATG,AC,,,,Deaf Peoples,,0,Unengaged and Unreached,"""<10","000""",Indigenous,ATG,ant-igua def
Antiguan,anti-gua-n,Canada,4700,Leeward Caribbean English Creole,Christianity - Roman Catholicism,43.8004,-79.2828,1,Unengaged,Little,Free,Low,Moderate,Level 1: Exercise Normal Precautions,A009,C0254,106882,"""Antiguan"," mixed""",CAN,CA,,,,American Peoples,Yes,0,Unengaged and Unreached,"""<10","000""",Diaspora,CAN,anti-guan
Antiguan,anti-gua-n,United States,8300,English,Christianity - Non-Evangelical Protestant,25.77899,-80.24113,6,Unengaged,Little,Free,Moderate,High,Caution,A009,C0254,100386,Afro-Antiguan,USA,US,,,,American Peoples,Yes,2,No Longer Unreached,"""<10","000""",Diaspora,USA,anti-guan
"""Antiguan",anti-gua-n,,Sint Maarten,13000,Leeward Caribbean English Creole,Christianity - Folk Catholicism,18.044049,-63.022489,5,Unengaged,Medium,Free,Low,Moderate,Level 1: Exercise Normal Precautions,A009,C0254,106882,"""Antiguan"," mixed""",SXM,NN,SC,,,American Peoples,Yes,2,No Longer Unreached,"""10","000+""",Diaspora,SXM,anti-guan mixed
Antillean Creole,anti-llea-n creo-le,Aruba,82000,Dutch,Christianity - Folk Catholicism,12.5101,-70.0189,5,Unengaged,Medium,Free,Low,Moderate,Level 1: Exercise Normal Precautions,A007,C0337,100390,"""Antillean Creole"," Papiamentu""",ABW,AA,,,,American Peoples,,2,No Longer Unreached,"""50","000+""",Indigenous,ABW,anti-llean creole
Antillean Creole,anti-llea-n creo-le,Curacao,125000,Papiamentu,Christianity - Folk Catholicism,12.14225,-68.94557,4,Unengaged,Medium,Free,Low,Moderate,Level 1: Exercise Normal Precautions,A007,C0337,100390,"""Antillean Creole"," Papiamentu""",CUW,UC,AA,,,American Peoples,,2,No Longer Unreached,"""100","000+""",Indigenous,CUW,anti-llean creole
Antillean Creole,anti-llea-n creo-le,Germany,17000,Papiamentu,Christianity - Folk Catholicism,48.129784,11.532606,4,Unengaged,Little,Free,Moderate,High,Level 2: Exercise Increased Caution,A007,C0337,100390,"""Antillean Creole"," Papiamentu""",DEU,GM,AA,,,American Peoples,,2,No Longer Unreached,"""10","000+""",Diaspora,DEU,anti-llean creole
Antillean Creole,anti-llea-n creo-le,Netherlands,135000,Papiamentu,Christianity - Roman Catholicism,52.374748,4.853857,4,Unengaged,Little,Free,Low,Moderate,Level 2: Exercise Increased Caution,A007,C0337,100390,"""Antillean Creole"," Papiamentu""",NLD,NL,AA,,,American Peoples,,2,No Longer Unreached,"""100","000+""",Diaspora,NLD,anti-llean creole
Antilles English-Speaking,anti-lle-s eng-lis-h-s-pea-kin-g,Sint Maarten,5400,English,Christianity - Folk Catholicism,18.040621,-63.049557,5,Unengaged,Medium,Free,Low,Moderate,Level 1: Exercise Normal Precautions,A007,C0337,100389,Antilles English-Speaking,SXM,NN,,,,American Peoples,Yes,2,No Longer Unreached,"""<10","000""",Indigenous,SXM,anti-lles english---speaking
Antiti,anti-ti,Sudan,16500,Undetermined,Islam - Sunni,11.772528,29.320639,0,Unengaged,Strenuous,Not Free,High,Moderate,Level 4: Do Not Travel,A013,C0156,119450,Antiti,SDN,SU,,,,Northern African and Middle Eastern Peoples,Yes,0,Unengaged and Unreached,"""10","000+""",Indigenous,SDN,antiti
Anu,anu,Myanmar,4300,Anu-Hkongso Chin,Ethnoreligion - Polytheism,21.25,92.863,6,Unengaged,Strenuous,Not Free,Very High,High,Level 4: Do Not Travel,A012,C0332,100394,Anu,MMR,BM,,,,Asian Pacific Rim Peoples,Yes,2,No Longer Unreached,"""<10","000""",Indigenous,MMR,anu
Anuki,anuki,Papua New Guinea,1100,Anuki,Christianity - Evangelical Protestant,-9.6692,149.82236,6,Unengaged,Strenuous,Partly Free,Low,Moderate,Level 3: Reconsider Travel,A010,C0152,100397,Anuki,PNG,PP,,,,Asian Pacific Rim Peoples,Yes,2,No Longer Unreached,"""<10","000""",Indigenous,PNG,anuki
Anuppan,anu-ppa-n,India,950,Kannada,Hinduism,10.139554,77.788306,1,Unengaged,Strenuous,Partly Free,High,Very High,Level 2: Exercise Increased Caution,A012,C0311,111325,Anuppan,IND,IN,,,,South Asian Peoples,Yes,0,Unengaged and Unreached,"""<10","000""",Indigenous,IND,anu-ppan
Anus,anus,Indonesia,350,Anus,Christianity - Non-Evangelical Protestant,-2.1973,139.453,6,Unengaged,Medium,Partly Free,Very High,High,Level 2: Exercise Increased Caution,A010,C0152,100400,Anus,IDN,ID,,,,Asian Pacific Rim Peoples,Yes,2,No Longer Unreached,"""<10","000""",Indigenous,IDN,anus
Anwal,anwal,India,125,Garhwali,Hinduism,29.847342,80.536906,1,Unengaged,Strenuous,Partly Free,High,Very High,Level 2: Exercise Increased Caution,A012,C0311,111335,Anwal,IND,IN,,,,South Asian Peoples,Yes,0,Unengaged and Unreached,"""<10","000""",Indigenous,IND,anwal
Aoka,aoka,China,410000,Xiang Chinese,Ethnoreligion,26.33739,110.2966,1,Unengaged,Medium,Not Free,Very High,Low,Other,A011,C0138,113992,Aoka,CHN,CH,,,,Asian Pacific Rim Peoples,Yes,0,Unengaged and Unreached,"""100","000+""",Indigenous,CHN,aoka
Aomie,aomie,Papua New Guinea,3200,Ömie,Christianity - Evangelical Protestant,-9.062264,148.127428,6,Unengaged,Strenuous,Partly Free,Low,Moderate,Level 3: Reconsider Travel,A010,C0152,100410,Aomie,PNG,PP,,,,Asian Pacific Rim Peoples,Yes,2,No Longer Unreached,"""<10","000""",Indigenous,PNG,aomie
"""Apache",apa-che,,United States,3000,English,Christianity - Non-Evangelical Protestant,36.8079,-107.00694,4,Unengaged,Little,Free,Moderate,High,Caution,A009,C0154,104264,"""Apache"," Jicarilla""",USA,US,,,,American Peoples,Yes,2,No Longer Unreached,"""<10","000""",Indigenous,USA,apa-ch-e jica-rilla
"""Apache",apa-che,,United States,1500,English,Christianity - Non-Evangelical Protestant,34.90771,-98.24612,4,Unengaged,Little,Free,Moderate,High,Caution,A009,C0154,105027,"""Apache"," Kiowa""",USA,US,,,,American Peoples,Yes,2,No Longer Unreached,"""<10","000""",Indigenous,USA,apa-ch-e kiowa
"""Apache",apa-che,,United States,175,English,Christianity - Non-Evangelical Protestant,33.27479,-105.81939,4,Unengaged,Little,Free,Moderate,High,Caution,A009,C0154,105793,"""Apache"," Lipan""",USA,US,,,,American Peoples,Yes,2,No Longer Unreached,"""<10","000""",Indigenous,USA,apa-ch-e lipan
"""Apache",apa-che,,United States,3700,Mescalero-Chiricahua Apache,Christianity - Non-Evangelical Protestant,33.1291,-105.56612,4,Unengaged,Little,Free,Moderate,High,Caution,A009,C0154,106563,"""Apache"," Mescalero""",USA,US,,,,American Peoples,Yes,2,No Longer Unreached,"""<10","000""",Indigenous,USA,apa-ch-e mesc-alero
Apalai,apa-lai,Brazil,450,Apalaí,Ethnoreligion,1.6462,-56.2621,6,Unengaged,Medium,Free,Low,Moderate,Level 2: Exercise Increased Caution,A007,C0201,100413,Apalai,BRA,BR,,,,American Peoples,Yes,2,No Longer Unreached,"""<10","000""",Indigenous,BRA,apalai
Apama,apama,Brazil,200,Portuguese,Ethnoreligion,0.97588,-53.32686,1,Unengaged,Medium,Free,Low,Moderate,Level 2: Exercise Increased Caution,A007,C0201,103932,Iapama,BRA,BR,,,,American Peoples,Yes,0,Unengaged and Unreached,"""<10","000""",Indigenous,BRA,apama
Apiaka,apia-ka,Brazil,850,Portuguese,Ethnoreligion,-10.943,-57.286,1,Unengaged,Medium,Free,Low,Moderate,Level 2: Exercise Increased Caution,A007,C0083,100415,Apiaká,BRA,BR,,,,American Peoples,Yes,0,Unengaged and Unreached,"""<10","000""",Indigenous,BRA,apiaka
Apu,apu,China,4100,Nuosu,Ethnoreligion - Chinese Folk Religion,22.780107,103.495399,1,Unengaged,Medium,Not Free,Very High,Low,Other,A014,C0229,113994,Apu,CHN,CH,,,,Asian Pacific Rim Peoples,Yes,0,Unengaged and Unreached,"""<10","000""",Indigenous,CHN,apu
Ara,ara,New Caledonia,200,Ajië,Christianity - Roman Catholicism,-21.28665,165.27269,1,Unengaged,Medium,Free,Moderate,High,Level 1: Exercise Normal Precautions,A010,C0151,100424,Ara,NCL,NC,,,,Asian Pacific Rim Peoples,Yes,0,Unengaged and Unreached,"""<10","000""",Indigenous,NCL,ara
Arab,eh-ruhb,Australia,155000,Standard Arabic,Islam - Sunni,-33.897339,151.244671,1,Unengaged,Little,Free,Low,High,Level 1: Exercise Normal Precautions,A001,C0013,100425,Arab,AUS,AS,,,,Northern African and Middle Eastern Peoples,,0,Unengaged and Unreached,"""100","000+""",Diaspora,AUS,eh-ruhb
Arab,eh-ruhb,Austria,100000,Standard Arabic,Islam - Sunni,48.200779,16.351657,1,Unengaged,Little,Free,Moderate,High,Level 1: Exercise Normal Precautions,A001,C0013,100425,Arab,AUT,AU,,,,Northern African and Middle Eastern Peoples,,0,Unengaged and Unreached,"""100","000+""",Diaspora,AUT,eh-ruhb
Arab,eh-ruhb,Barbados,150,Standard Arabic,Islam - Sunni,13.127212,-59.627675,1,Unengaged,Low,Free,Low,Low,Level 1: Exercise Normal Precautions,A001,C0013,100425,Arab,BRB,BB,,,,Northern African and Middle Eastern Peoples,,0,Unengaged and Unreached,"""<10","000""",Diaspora,BRB,eh-ruhb
Arab,eh-ruhb,Burundi,3700,Standard Arabic,Islam - Sunni,-3.38752,29.377888,1,Unengaged,Extreme,Not Free,Low,Low,Level 3: Reconsider Travel,A001,C0013,100425,Arab,BDI,BY,,,,Northern African and Middle Eastern Peoples,,0,Unengaged and Unreached,"""<10","000""",Diaspora,BDI,eh-ruhb
Arab,eh-ruhb,"""Congo"," Democratic Republic of the""",30000,Standard Arabic,Islam - Sunni,-4.369865,15.311802,1,Unengaged,Extreme,Not Free,Moderate,High,Level 3: Reconsider Travel,A001,C0013,100425,Arab,COD,CG,,,,Northern African and Middle Eastern Peoples,,0,Unengaged and Unreached,"""10","000+""",Diaspora,COD,eh-ruhb
Arab,eh-ruhb,Denmark,94500,Standard Arabic,Islam - Sunni,55.684471,12.543893,1,Unengaged,Little,Free,Moderate,High,Level 2: Exercise Increased Caution,A001,C0013,100425,Arab,DNK,DA,,,,Northern African and Middle Eastern Peoples,,0,Unengaged and Unreached,"""50","000+""",Diaspora,DNK,eh-ruhb
Arab,eh-ruhb,Ethiopia,12500,Standard Arabic,Islam - Sunni,9.0081,38.7093,1,Unengaged,Extreme,Not Free,Moderate,Moderate,Level 3: Reconsider Travel,A001,C0013,100425,Arab,ETH,ET,,,,Northern African and Middle Eastern Peoples,,0,Unengaged and Unreached,"""10","000+""",Diaspora,ETH,eh-ruhb
Arab,eh-ruhb,Ghana,3200,Standard Arabic,Islam - Sunni,5.599462,-0.232694,1,Unengaged,Strenuous,Free,Low,Moderate,Level 2: Exercise Increased Caution,A001,C0013,100425,Arab,GHA,GH,,,,Northern African and Middle Eastern Peoples,,0,Unengaged and Unreached,"""<10","000""",Diaspora,GHA,eh-ruhb
Arab,eh-ruhb,India,24000,Standard Arabic,Islam - Sunni,12.911715,75.075587,1,Unengaged,Strenuous,Partly Free,High,Very High,Level 2: Exercise Increased Caution,A001,C0013,100425,Arab,IND,IN,,,,Northern African and Middle Eastern Peoples,,0,Unengaged and Unreached,"""10","000+""",Diaspora,IND,eh-ruhb
Arab,eh-ruhb,Jamaica,2100,Standard Arabic,Islam - Sunni,18.016473,-76.804901,1,Unengaged,Medium,Free,Low,Low,Level 3: Reconsider Travel,A001,C0013,100425,Arab,JAM,JM,,,,Northern African and Middle Eastern Peoples,,0,Unengaged and Unreached,"""<10","000""",Diaspora,JAM,eh-ruhb
Arab,eh-ruhb,Malaysia,17500,Standard Arabic,Islam - Sunni,3.15968,101.735264,1,Unengaged,Low,Partly Free,High,High,Level 1: Exercise Normal Precautions,A001,C0013,100425,Arab,MYS,MY,,,,Northern African and Middle Eastern Peoples,,0,Unengaged and Unreached,"""10","000+""",Diaspora,MYS,eh-ruhb
Arab,eh-ruhb,Maldives,750,Standard Arabic,Islam - Sunni,4.176394,73.505165,1,Unengaged,Medium,Partly Free,Very High,High,Level 2: Exercise Increased Caution,A001,C0013,100425,Arab,MDV,MV,,,,Northern African and Middle Eastern Peoples,,0,Unengaged and Unreached,"""<10","000""",Diaspora,MDV,eh-ruhb
Arab,eh-ruhb,Malta,9500,Standard Arabic,Islam - Sunni,35.873651,14.512245,1,Unengaged,Low,Free,Low,Low,Level 1: Exercise Normal Precautions,A001,C0013,100425,Arab,MLT,MT,,,,Northern African and Middle Eastern Peoples,,0,Unengaged and Unreached,"""<10","000""",Diaspora,MLT,eh-ruhb
Arab,eh-ruhb,New Zealand,9700,Standard Arabic,Islam - Sunni,-36.914571,174.70232,4,Unengaged,Little,Free,Low,Low,Level 1: Exercise Normal Precautions,A001,C0013,100425,Arab,NZL,NZ,,,,Northern African and Middle Eastern Peoples,,2,No Longer Unreached,"""<10","000""",Diaspora,NZL,eh-ruhb
Arab,eh-ruhb,Pakistan,236000,Standard Arabic,Islam - Sunni,24.909655,67.06246,1,Unengaged,Strenuous,Partly Free,High,High,Level 3: Reconsider Travel,A001,C0013,100425,Arab,PAK,PK,,,,Northern African and Middle Eastern Peoples,,0,Unengaged and Unreached,"""100","000+""",Diaspora,PAK,eh-ruhb
Arab,eh-ruhb,Switzerland,73500,Standard Arabic,Islam - Sunni,47.454513,8.562528,1,Unengaged,Little,Free,Low,High,Level 1: Exercise Normal Precautions,A001,C0013,100425,Arab,CHE,SZ,,,,Northern African and Middle Eastern Peoples,,0,Unengaged and Unreached,"""50","000+""",Diaspora,CHE,eh-ruhb
"""Arab",eh-ruhb,,Belgium,28000,Algerian Arabic,Islam - Sunni,51.219427,4.413716,1,Unengaged,Little,Free,Moderate,Moderate,Level 2: Exercise Increased Caution,A001,C0017,100226,"""Arab"," Algerian""",BEL,BE,,,,Northern African and Middle Eastern Peoples,,0,Unengaged and Unreached,"""10","000+""",Diaspora,BEL,eh-ruhb alge-rian
"""Arab",eh-ruhb,,Italy,26000,Algerian Arabic,Islam - Sunni,38.114192,13.347806,1,Unengaged,Low,Free,Moderate,High,Level 2: Exercise Increased Caution,A001,C0017,100226,"""Arab"," Algerian""",ITA,IT,AG,,,Northern African and Middle Eastern Peoples,,0,Unengaged and Unreached,"""10","000+""",Diaspora,ITA,eh-ruhb alge-rian
"""Arab",eh-ruhb,,Spain,64000,Algerian Arabic,Islam - Sunni,37.616826,-0.987646,1,Unengaged,Little,Free,Moderate,High,Level 2: Exercise Increased Caution,A001,C0017,100226,"""Arab"," Algerian""",ESP,SP,AG,,,Northern African and Middle Eastern Peoples,,0,Unengaged and Unreached,"""50","000+""",Diaspora,ESP,eh-ruhb alge-rian
"""Arab",eh-ruhb,,Tunisia,293000,Algerian Arabic,Islam - Sunni,36.835,10.1063,1,Unengaged,Medium,Partly Free,Very High,High,Level 2: Exercise Increased Caution,A001,C0017,100226,"""Arab"," Algerian""",TUN,TS,AG,,,Northern African and Middle Eastern Peoples,,0,Unengaged and Unreached,"""100","000+""",Diaspora,TUN,eh-ruhb alge-rian
"""Arab",eh-ruhb,,United States,24500,Algerian Arabic,Islam - Sunni,39.035496,-77.201859,1,Unengaged,Little,Free,Moderate,High,Caution,A001,C0017,100226,"""Arab"," Algerian""",USA,US,AG,,,Northern African and Middle Eastern Peoples,,0,Unengaged and Unreached,"""10","000+""",Diaspora,USA,eh-ruhb alge-rian
"""Arab",eh-ruhb,,Oman,19500,Baharna Arabic,Islam - Shia,24.34,56.74,1,Unengaged,Low,Not Free,High,Low,Level 2: Exercise Increased Caution,A001,C0013,100772,"""Arab", Bahraini," Shia""",OMN,MU,BA,,,Northern African and Middle Eastern Peoples,,0,Unengaged and Unreached,"""10","000+""",Diaspora,OMN,eh-ruhb bahr-aini
"""Arab",eh-ruhb,,Bahrain,136000,Baharna Arabic,Islam - Sunni,26.136371,50.60272,1,Unengaged,Low,Not Free,Moderate,Low,Level 2: Exercise Increased Caution,A001,C0013,118859,"""Arab", Bahraini," Sunni""",BHR,BA,AE,,,Northern African and Middle Eastern Peoples,Yes,0,Unengaged and Unreached,"""100","000+""",Indigenous,BHR,eh-ruhb bahr-aini sunni
"""Arab",eh-ruhb,,Burkina Faso,23000,Algerian Arabic,Islam - Folk,14.0996,-1.629,1,Unengaged,Extreme,Not Free,Low,High,Level 4: Do Not Travel,A001,C0017,100226,"""Arab"," Algerian""",BFA,UV,AG,,,Northern African and Middle Eastern Peoples,,0,Unengaged and Unreached,"""10","000+""",Diaspora,BFA,eh-ruhb bed-ouin
"""Arab",eh-ruhb,,Iraq,1915000,Najdi Arabic,Islam - Sunni,31.7685,43.19846,1,Unengaged,Strenuous,Not Free,High,Very High,Level 4: Do Not Travel,A001,C0040,101193,"""Arab"," Bedouin""",IRQ,IZ,SA,,,Northern African and Middle Eastern Peoples,Yes,0,Unengaged and Unreached,"""1",000,"000+""",Diaspora,IRQ,eh-ruhb bed-ouin
"""Arab",eh-ruhb,,Jordan,1305000,Najdi Arabic,Islam - Sunni,32.504308,38.20441,1,Unengaged,Medium,Not Free,High,High,Level 2: Exercise Increased Caution,A001,C0040,101193,"""Arab"," Bedouin""",JOR,JO,SA,,,Northern African and Middle Eastern Peoples,Yes,0,Unengaged and Unreached,"""1",000,"000+""",Indigenous,JOR,eh-ruhb bed-ouin
"""Arab",eh-ruhb,,Saudi Arabia,1405000,Najdi Arabic,Islam - Sunni,24.693587,46.661276,1,Unengaged,Low,Not Free,Very High,High,Level 3: Reconsider Travel,A001,C0040,101193,"""Arab"," Bedouin""",SAU,SA,,,,Northern African and Middle Eastern Peoples,Yes,0,Unengaged and Unreached,"""1",000,"000+""",Indigenous,SAU,eh-ruhb bed-ouin
"""Arab",eh-ruhb,,Syria,1420000,Najdi Arabic,Islam - Sunni,34.53699,38.62842,1,Unengaged,Strenuous,Not Free,Very High,Very High,Level 4: Do Not Travel,A001,C0040,101193,"""Arab"," Bedouin""",SYR,SY,SA,,,Northern African and Middle Eastern Peoples,Yes,0,Unengaged and Unreached,"""1",000,"000+""",Diaspora,SYR,eh-ruhb bed-ouin
"""Arab",eh-ruhb,,Djibouti,76500,Ta’izzi-Adeni Arabic,Islam - Shia,11.564028,43.111031,1,Unengaged,Strenuous,Not Free,Low,Moderate,Level 2: Exercise Increased Caution,A001,C0020,109729,"""Arab"," Yemeni""",DJI,DJ,YM,,,Northern African and Middle Eastern Peoples,,0,Unengaged and Unreached,"""50","000+""",Diaspora,DJI,eh-ruhb djibo-utian
"""Arab",eh-ruhb,,Algeria,21000,Egyptian Arabic,Islam - Sunni,36.709413,3.098096,1,Unengaged,Medium,Not Free,Very High,High,Level 2: Exercise Increased Caution,A001,C0067,102879,"""Arab"," Egyptian""",DZA,AG,EG,,,Northern African and Middle Eastern Peoples,,0,Unengaged and Unreached,"""10","000+""",Diaspora,DZA,eh-ruhb egyp-tian
"""Arab",eh-ruhb,,Belgium,5300,Egyptian Arabic,Islam - Sunni,50.850599,4.346549,5,Unengaged,Little,Free,Moderate,Moderate,Level 2: Exercise Increased Caution,A001,C0067,102879,"""Arab"," Egyptian""",BEL,BE,EG,,,Northern African and Middle Eastern Peoples,,2,No Longer Unreached,"""<10","000""",Diaspora,BEL,eh-ruhb egyp-tian
"""Arab",eh-ruhb,,Germany,25000,Egyptian Arabic,Islam - Sunni,52.516481,13.324709,5,Unengaged,Little,Free,Moderate,High,Level 2: Exercise Increased Caution,A001,C0067,102879,"""Arab"," Egyptian""",DEU,GM,EG,,,Northern African and Middle Eastern Peoples,,2,No Longer Unreached,"""10","000+""",Diaspora,DEU,eh-ruhb egyp-tian
"""Arab",eh-ruhb,,Iraq,518000,Egyptian Arabic,Islam - Sunni,33.281674,44.326044,1,Unengaged,Strenuous,Not Free,High,Very High,Level 4: Do Not Travel,A001,C0067,102879,"""Arab"," Egyptian""",IRQ,IZ,EG,,,Northern African and Middle Eastern Peoples,,0,Unengaged and Unreached,"""100","000+""",Diaspora,IRQ,eh-ruhb egyp-tian
"""Arab",eh-ruhb,,Israel,22000,Egyptian Arabic,Islam - Sunni,31.2595,34.7693,1,Unengaged,Little,Free,High,Very High,Other,A001,C0067,102879,"""Arab"," Egyptian""",ISR,IS,EG,,,Northern African and Middle Eastern Peoples,,0,Unengaged and Unreached,"""10","000+""",Diaspora,ISR,eh-ruhb egyp-tian
"""Arab",eh-ruhb,,Jordan,725000,Egyptian Arabic,Islam - Sunni,31.9149,35.9333,1,Unengaged,Medium,Not Free,High,High,Level 2: Exercise Increased Caution,A001,C0067,102879,"""Arab"," Egyptian""",JOR,JO,EG,,,Northern African and Middle Eastern Peoples,,0,Unengaged and Unreached,"""100","000+""",Diaspora,JOR,eh-ruhb egyp-tian
"""Arab",eh-ruhb,,Kuwait,511000,Egyptian Arabic,Islam - Sunni,29.351467,48.000638,1,Unengaged,Low,Partly Free,High,Moderate,Level 1: Exercise Normal Precautions,A001,C0067,102879,"""Arab"," Egyptian""",KWT,KU,EG,,,Northern African and Middle Eastern Peoples,,0,Unengaged and Unreached,"""100","000+""",Diaspora,KWT,eh-ruhb egyp-tian
"""Arab",eh-ruhb,,Libya,35500,Egyptian Arabic,Islam - Sunni,32.764893,21.768454,1,Unengaged,Medium,Not Free,High,High,Level 4: Do Not Travel,A001,C0067,102879,"""Arab"," Egyptian""",LBY,LY,EG,,,Northern African and Middle Eastern Peoples,,0,Unengaged and Unreached,"""10","000+""",Diaspora,LBY,eh-ruhb egyp-tian
"""Arab",eh-ruhb,,Oman,93000,Egyptian Arabic,Islam - Sunni,23.615594,58.538448,1,Unengaged,Low,Not Free,High,Low,Level 2: Exercise Increased Caution,A001,C0067,102879,"""Arab"," Egyptian""",OMN,MU,EG,,,Northern African and Middle Eastern Peoples,,0,Unengaged and Unreached,"""50","000+""",Diaspora,OMN,eh-ruhb egyp-tian
"""Arab",eh-ruhb,,Qatar,57000,Egyptian Arabic,Islam - Sunni,25.28759,51.446241,1,Unengaged,Low,Not Free,High,Moderate,Level 1: Exercise Normal Precautions,A001,C0067,102879,"""Arab"," Egyptian""",QAT,QA,EG,,,Northern African and Middle Eastern Peoples,,0,Unengaged and Unreached,"""50","000+""",Diaspora,QAT,eh-ruhb egyp-tian
"""Arab",eh-ruhb,,Saudi Arabia,648000,Egyptian Arabic,Islam - Sunni,24.7315,46.6586,1,Unengaged,Low,Not Free,Very High,High,Level 3: Reconsider Travel,A001,C0067,102879,"""Arab"," Egyptian""",SAU,SA,EG,,,Northern African and Middle Eastern Peoples,,0,Unengaged and Unreached,"""100","000+""",Diaspora,SAU,eh-ruhb egyp-tian
"""Arab",eh-ruhb,,Spain,4400,Egyptian Arabic,Islam - Sunni,40.404506,-3.719182,1,Unengaged,Little,Free,Moderate,High,Level 2: Exercise Increased Caution,A001,C0067,102879,"""Arab"," Egyptian""",ESP,SP,EG,,,Northern African and Middle Eastern Peoples,,0,Unengaged and Unreached,"""<10","000""",Diaspora,ESP,eh-ruhb egyp-tian
"""Arab",eh-ruhb,,Sudan,764000,Egyptian Arabic,Islam - Sunni,15.7135,32.466,1,Unengaged,Strenuous,Not Free,High,Moderate,Level 4: Do Not Travel,A001,C0067,102879,"""Arab"," Egyptian""",SDN,SU,EG,,,Northern African and Middle Eastern Peoples,,0,Unengaged and Unreached,"""100","000+""",Diaspora,SDN,eh-ruhb egyp-tian
"""Arab",eh-ruhb,,United Arab Emirates,1110000,Egyptian Arabic,Islam - Sunni,25.238206,55.370813,1,Unengaged,Low,Not Free,Moderate,Low,Level 2: Exercise Increased Caution,A001,C0067,102879,"""Arab"," Egyptian""",ARE,AE,EG,,,Northern African and Middle Eastern Peoples,,0,Unengaged and Unreached,"""1",000,"000+""",Diaspora,ARE,eh-ruhb egyp-tian
"""Arab",eh-ruhb,,Yemen,12000,Egyptian Arabic,Islam - Sunni,15.3665,44.2155,1,Unengaged,Extreme,Not Free,Very High,High,Level 4: Do Not Travel,A001,C0067,102879,"""Arab"," Egyptian""",YEM,YM,EG,,,Northern African and Middle Eastern Peoples,,0,Unengaged and Unreached,"""10","000+""",Diaspora,YEM,eh-ruhb egyp-tian
"""Arab",eh-ruhb,,Yemen,22000,Hijazi Arabic,Islam - Sunni,17.83421,49.72883,1,Unengaged,Extreme,Not Free,Very High,High,Level 4: Do Not Travel,A001,C0013,100427,"""Arab"," Gulf Sunni""",YEM,YM,AE,,,Northern African and Middle Eastern Peoples,,0,Unengaged and Unreached,"""10","000+""",Diaspora,YEM,eh-ruhb gulf
"""Arab",eh-ruhb,,Yemen,1845000,Hadrami Arabic,Islam - Sunni,15.9447,48.7833,1,Unengaged,Extreme,Not Free,Very High,High,Level 4: Do Not Travel,A001,C0020,103630,"""Arab"," Hadrami""",YEM,YM,,,,Northern African and Middle Eastern Peoples,,0,Unengaged and Unreached,"""1",000,"000+""",Indigenous,YEM,eh-ruhb hadhr-amout yemeni
"""Arab",eh-ruhb,,United States,300,Hadrami Arabic,Islam - Sunni,42.3297,-83.3024,1,Unengaged,Little,Free,Moderate,High,Caution,A001,C0020,103630,"""Arab"," Hadrami""",USA,US,,,,Northern African and Middle Eastern Peoples,,0,Unengaged and Unreached,"""<10","000""",Diaspora,USA,eh-ruhb had-rami
"""Arab",eh-ruhb,,Algeria,8400,Standard Arabic,Islam - Sunni,36.7527,3.2106,1,Unengaged,Medium,Not Free,Very High,High,Level 2: Exercise Increased Caution,A001,C0015,104056,"""Arab"," Iraqi""",DZA,AG,IZ,,,Northern African and Middle Eastern Peoples,,0,Unengaged and Unreached,"""<10","000""",Diaspora,DZA,eh-ruhb iraqi
"""Arab",eh-ruhb,,France,6600,Mesopotamian Arabic,Islam - Sunni,48.791679,2.358407,1,Unengaged,Little,Free,Moderate,High,Level 2: Exercise Increased Caution,A001,C0015,104056,"""Arab"," Iraqi""",FRA,FR,,,,Northern African and Middle Eastern Peoples,,0,Unengaged and Unreached,"""<10","000""",Diaspora,FRA,eh-ruhb iraqi
"""Arab",eh-ruhb,,Lebanon,26500,Standard Arabic,Islam - Sunni,33.853694,35.509333,1,Unengaged,Medium,Partly Free,Moderate,High,Level 3: Reconsider Travel,A001,C0015,104056,"""Arab"," Iraqi""",LBN,LE,IZ,,,Northern African and Middle Eastern Peoples,,0,Unengaged and Unreached,"""10","000+""",Diaspora,LBN,eh-ruhb iraqi
"""Arab",eh-ruhb,,Sweden,177000,Mesopotamian Arabic,Islam - Sunni,59.329444,18.068611,1,Unengaged,Little,Free,Low,Moderate,Level 2: Exercise Increased Caution,A001,C0015,104056,"""Arab"," Iraqi""",SWE,SW,,,,Northern African and Middle Eastern Peoples,,0,Unengaged and Unreached,"""100","000+""",Diaspora,SWE,eh-ruhb iraqi
"""Arab",eh-ruhb,,Syria,57000,Mesopotamian Arabic,Islam - Shia,33.518,36.285,1,Unengaged,Strenuous,Not Free,Very High,Very High,Level 4: Do Not Travel,A001,C0015,104056,"""Arab"," Iraqi""",SYR,SY,IZ,,,Northern African and Middle Eastern Peoples,,0,Unengaged and Unreached,"""50","000+""",Diaspora,SYR,eh-ruhb iraqi
"""Arab",eh-ruhb,,United Arab Emirates,57500,Mesopotamian Arabic,Islam - Sunni,25.255854,55.287296,1,Unengaged,Low,Not Free,Moderate,Low,Level 2: Exercise Increased Caution,A001,C0015,104056,"""Arab"," Iraqi""",ARE,AE,IZ,,,Northern African and Middle Eastern Peoples,,0,Unengaged and Unreached,"""50","000+""",Diaspora,ARE,eh-ruhb iraqi
"""Arab",eh-ruhb,,Yemen,10000,Mesopotamian Arabic,Islam - Sunni,15.385,44.176,1,Unengaged,Extreme,Not Free,Very High,High,Level 4: Do Not Travel,A001,C0015,104056,"""Arab"," Iraqi""",YEM,YM,IZ,,,Northern African and Middle Eastern Peoples,,0,Unengaged and Unreached,"""10","000+""",Diaspora,YEM,eh-ruhb iraqi
"""Arab",eh-ruhb,,Kuwait,408000,Standard Arabic,Islam - Sunni,29.28246,47.98267,1,Unengaged,Low,Partly Free,High,Moderate,Level 1: Exercise Normal Precautions,A001,C0015,104301,"""Arab"," Jordanian""",KWT,KU,JO,,,Northern African and Middle Eastern Peoples,,0,Unengaged and Unreached,"""100","000+""",Diaspora,KWT,eh-ruhb jord-anian
"""Arab",eh-ruhb,,Oman,23000,South Levantine Arabic,Islam - Sunni,23.624,58.5237,1,Unengaged,Low,Not Free,High,Low,Level 2: Exercise Increased Caution,A001,C0015,104301,"""Arab"," Jordanian""",OMN,MU,JO,,,Northern African and Middle Eastern Peoples,,0,Unengaged and Unreached,"""10","000+""",Diaspora,OMN,eh-ruhb jord-anian
"""Arab",eh-ruhb,,Saudi Arabia,232000,Levantine Arabic,Islam - Sunni,21.462559,39.19737,1,Unengaged,Low,Not Free,Very High,High,Level 3: Reconsider Travel,A001,C0015,104301,"""Arab"," Jordanian""",SAU,SA,JO,,,Northern African and Middle Eastern Peoples,,0,Unengaged and Unreached,"""100","000+""",Diaspora,SAU,eh-ruhb jord-anian
"""Arab",eh-ruhb,,Syria,38000,Levantine Arabic,Islam - Sunni,33.475,36.326,1,Unengaged,Strenuous,Not Free,Very High,Very High,Level 4: Do Not Travel,A001,C0015,104301,"""Arab"," Jordanian""",SYR,SY,JO,,,Northern African and Middle Eastern Peoples,,0,Unengaged and Unreached,"""10","000+""",Diaspora,SYR,eh-ruhb jord-anian
"""Arab",eh-ruhb,,United Arab Emirates,183000,South Levantine Arabic,Islam - Sunni,25.284409,55.33539,1,Unengaged,Low,Not Free,Moderate,Low,Level 2: Exercise Increased Caution,A001,C0015,104301,"""Arab"," Jordanian""",ARE,AE,JO,,,Northern African and Middle Eastern Peoples,,0,Unengaged and Unreached,"""100","000+""",Diaspora,ARE,eh-ruhb jord-anian
"""Arab",eh-ruhb,,United Kingdom,6000,Judeo-Iraqi Arabic,Judaism,51.510859,-0.112548,1,Unengaged,Little,Free,Moderate,High,Level 2: Exercise Increased Caution,A006,C0102,110925,"""Jew"," Iraqi""",GBR,UK,IS,,,Northern African and Middle Eastern Peoples,,0,Unengaged and Unreached,"""<10","000""",Diaspora,GBR,eh-ruhb judeo--iraqi
"""Arab",eh-ruhb,,Canada,2400,Gulf Arabic,Islam - Sunni,45.383547,-75.654498,1,Unengaged,,,,,,A001,C0013,113915,"""Arab"," Kuwaiti""",CAN,CA,,,,Northern African and Middle Eastern Peoples,,0,Unengaged and Unreached,"""<10","000""",Diaspora,CAN,eh-ruhb kuw-aiti
"""Arab",eh-ruhb,,United States,26500,Gulf Arabic,Islam - Sunni,34.746481,-92.289595,1,Unengaged,,,,,,A001,C0013,113915,"""Arab"," Kuwaiti""",USA,US,,,,Northern African and Middle Eastern Peoples,,0,Unengaged and Unreached,"""10","000+""",Diaspora,USA,eh-ruhb kuw-aiti
"""Arab",eh-ruhb,,Congo,1200,Levantine Arabic,Islam - Sunni,-4.265835,15.25975,1,Unengaged,Strenuous,Not Free,Low,Low,Level 2: Exercise Increased Caution,A001,C0015,105688,"""Arab"," Lebanese""",COG,CF,LE,,,Northern African and Middle Eastern Peoples,,0,Unengaged and Unreached,"""<10","000""",Diaspora,COG,eh-ruhb leba-nese
"""Arab",eh-ruhb,,France,54000,Levantine Arabic,Islam - Sunni,48.848431,2.268764,1,Unengaged,Little,Free,Moderate,High,Level 2: Exercise Increased Caution,A001,C0015,105688,"""Arab"," Lebanese""",FRA,FR,,,,Northern African and Middle Eastern Peoples,,0,Unengaged and Unreached,"""50","000+""",Diaspora,FRA,eh-ruhb leba-nese
"""Arab",eh-ruhb,,French Guiana,1500,Levantine Arabic,Islam - Sunni,4.896295,-52.286077,1,Unengaged,Medium,Free,Moderate,High,Level 1: Exercise Normal Precautions,A001,C0015,105688,"""Arab"," Lebanese""",GUF,FG,LE,,,Northern African and Middle Eastern Peoples,,0,Unengaged and Unreached,"""<10","000""",Diaspora,GUF,eh-ruhb leba-nese
"""Arab",eh-ruhb,,Kuwait,140000,Levantine Arabic,Islam - Sunni,29.3278,47.9114,1,Unengaged,Low,Partly Free,High,Moderate,Level 1: Exercise Normal Precautions,A001,C0015,105688,"""Arab"," Lebanese""",KWT,KU,LE,,,Northern African and Middle Eastern Peoples,,0,Unengaged and Unreached,"""100","000+""",Diaspora,KWT,eh-ruhb leba-nese
"""Arab",eh-ruhb,,Netherlands,6900,Levantine Arabic,Islam - Sunni,52.357209,4.886356,1,Unengaged,Little,Free,Low,Moderate,Level 2: Exercise Increased Caution,A001,C0015,105688,"""Arab"," Lebanese""",NLD,NL,LE,,,Northern African and Middle Eastern Peoples,,0,Unengaged and Unreached,"""<10","000""",Diaspora,NLD,eh-ruhb leba-nese
"""Arab",eh-ruhb,,Panama,9200,Levantine Arabic,Islam - Sunni,9.358,-79.895,5,Unengaged,Low,Free,Low,Low,Level 2: Exercise Increased Caution,A001,C0015,105688,"""Arab"," Lebanese""",PAN,PM,LE,,,Northern African and Middle Eastern Peoples,,2,No Longer Unreached,"""<10","000""",Diaspora,PAN,eh-ruhb leba-nese
"""Arab",eh-ruhb,,Qatar,297000,Levantine Arabic,Islam - Sunni,25.261722,51.512386,1,Unengaged,Low,Not Free,High,Moderate,Level 1: Exercise Normal Precautions,A001,C0015,105688,"""Arab"," Lebanese""",QAT,QA,LE,,,Northern African and Middle Eastern Peoples,,0,Unengaged and Unreached,"""100","000+""",Diaspora,QAT,eh-ruhb leba-nese
"""Arab",eh-ruhb,,Saudi Arabia,149000,Levantine Arabic,Islam - Sunni,21.49171,39.262869,1,Unengaged,Low,Not Free,Very High,High,Level 3: Reconsider Travel,A001,C0015,105688,"""Arab"," Lebanese""",SAU,SA,LE,,,Northern African and Middle Eastern Peoples,,0,Unengaged and Unreached,"""100","000+""",Diaspora,SAU,eh-ruhb leba-nese
"""Arab",eh-ruhb,,Suriname,3000,Levantine Arabic,Islam - Sunni,5.8443,-55.1838,1,Unengaged,Medium,Free,Low,Low,Level 1: Exercise Normal Precautions,A001,C0015,105688,"""Arab"," Lebanese""",SUR,NS,LE,,,Northern African and Middle Eastern Peoples,,0,Unengaged and Unreached,"""<10","000""",Diaspora,SUR,eh-ruhb leba-nese
"""Arab",eh-ruhb,,United Arab Emirates,45500,Levantine Arabic,Islam - Sunni,25.248945,55.287687,1,Unengaged,Low,Not Free,Moderate,Low,Level 2: Exercise Increased Caution,A001,C0015,105688,"""Arab"," Lebanese""",ARE,AE,LE,,,Northern African and Middle Eastern Peoples,,0,Unengaged and Unreached,"""10","000+""",Diaspora,ARE,eh-ruhb leba-nese
"""Arab",eh-ruhb,,Lebanon,1190000,Levantine Arabic,Christianity - Roman Catholicism,33.886438,35.51498,1,Unengaged,Medium,Partly Free,Moderate,High,Level 3: Reconsider Travel,A001,C0015,116091,"""Arab"," Lebanese Christian""",LBN,LE,,,,Northern African and Middle Eastern Peoples,Yes,0,Unengaged and Unreached,"""1",000,"000+""",Indigenous,LBN,eh-ruhb leba-nese ch-ri-stian
"""Arab",eh-ruhb,,Lebanon,1070000,Levantine Arabic,Islam - Shia,34.023394,36.205065,1,Unengaged,Medium,Partly Free,Moderate,High,Level 3: Reconsider Travel,A001,C0015,105688,"""Arab"," Lebanese""",LBN,LE,,,,Northern African and Middle Eastern Peoples,,0,Unengaged and Unreached,"""1",000,"000+""",Indigenous,LBN,eh-ruhb leba-nese sh--iite
"""Arab",eh-ruhb,,Lebanon,1170000,Levantine Arabic,Islam - Sunni,34.431,35.842,1,Unengaged,Medium,Partly Free,Moderate,High,Level 3: Reconsider Travel,A001,C0015,116090,"""Arab"," Lebanese Sunni""",LBN,LE,,,,Northern African and Middle Eastern Peoples,Yes,0,Unengaged and Unreached,"""1",000,"000+""",Indigenous,LBN,eh-ruhb leba-nese sunni
"""Arab",eh-ruhb,,Curacao,325,Standard Arabic,Islam - Sunni,12.143255,-68.915309,1,Unengaged,Medium,Free,Low,Moderate,Level 1: Exercise Normal Precautions,A001,C0015,109667,"""Arab"," Levantine""",CUW,UC,TU,,,Northern African and Middle Eastern Peoples,,0,Unengaged and Unreached,"""<10","000""",Diaspora,CUW,eh-ruhb leva-ntine
"""Arab",eh-ruhb,,Egypt,207000,Standard Arabic,Islam - Sunni,29.9964,31.2621,1,Unengaged,Medium,Not Free,Very High,Very High,Level 3: Reconsider Travel,A001,C0015,109667,"""Arab"," Levantine""",EGY,EG,TU,,,Northern African and Middle Eastern Peoples,,0,Unengaged and Unreached,"""100","000+""",Diaspora,EGY,eh-ruhb leva-ntine
"""Arab",eh-ruhb,,Guinea,1300,Standard Arabic,Islam - Folk,9.616309,-13.594874,1,Unengaged,Extreme,Not Free,Moderate,Moderate,Level 3: Reconsider Travel,A001,C0015,109667,"""Arab"," Levantine""",GIN,GV,TU,,,Northern African and Middle Eastern Peoples,,0,Unengaged and Unreached,"""<10","000""",Diaspora,GIN,eh-ruhb leva-ntine
"""Arab",eh-ruhb,,Haiti,5600,Standard Arabic,Islam - Sunni,18.539208,-72.328789,1,Unengaged,Strenuous,Not Free,Low,Moderate,Level 4: Do Not Travel,A001,C0015,109667,"""Arab"," Levantine""",HTI,HA,TU,,,Northern African and Middle Eastern Peoples,,0,Unengaged and Unreached,"""<10","000""",Diaspora,HTI,eh-ruhb leva-ntine
"""Arab",eh-ruhb,,Sweden,386000,Levantine Arabic,Islam - Sunni,59.325896,18.027515,1,Unengaged,Little,Free,Low,Moderate,Level 2: Exercise Increased Caution,A001,C0015,109667,"""Arab"," Levantine""",SWE,SW,TU,,,Northern African and Middle Eastern Peoples,,0,Unengaged and Unreached,"""100","000+""",Diaspora,SWE,eh-ruhb leva-ntine
"""Arab",eh-ruhb,,Tunisia,244000,Standard Arabic,Islam - Sunni,36.8413,10.1676,1,Unengaged,Medium,Partly Free,Very High,High,Level 2: Exercise Increased Caution,A001,C0015,109667,"""Arab"," Levantine""",TUN,TS,TU,,,Northern African and Middle Eastern Peoples,,0,Unengaged and Unreached,"""100","000+""",Diaspora,TUN,eh-ruhb leva-ntine
"""Arab",eh-ruhb,,Italy,41000,Libyan Arabic,Islam - Sunni,41.883986,12.51014,1,Unengaged,Low,Free,Moderate,High,Level 2: Exercise Increased Caution,A001,C0016,105948,"""Arab"," Libyan""",ITA,IT,LY,,,Northern African and Middle Eastern Peoples,,0,Unengaged and Unreached,"""10","000+""",Diaspora,ITA,eh-ruhb libyan
"""Arab",eh-ruhb,,Libya,2750000,Libyan Arabic,Islam - Sunni,32.867838,13.192789,1,Unengaged,Medium,Not Free,High,High,Level 4: Do Not Travel,A001,C0016,105948,"""Arab"," Libyan""",LBY,LY,,,,Northern African and Middle Eastern Peoples,,0,Unengaged and Unreached,"""1",000,"000+""",Indigenous,LBY,eh-ruhb libyan
"""Arab",eh-ruhb,,United States,11000,Libyan Arabic,Islam - Sunni,40.83458,-73.868919,1,Unengaged,Little,Free,Moderate,High,Caution,A001,C0016,105948,"""Arab"," Libyan""",USA,US,LY,,,Northern African and Middle Eastern Peoples,,0,Unengaged and Unreached,"""10","000+""",Diaspora,USA,eh-ruhb libyan
"""Arab",eh-ruhb,,Germany,101000,South Levantine Arabic,Islam - Sunni,52.51761,13.408391,1,Unengaged,Little,Free,Moderate,High,Level 2: Exercise Increased Caution,A001,C0015,104301,"""Arab"," Jordanian""",DEU,GM,JO,,,Northern African and Middle Eastern Peoples,,0,Unengaged and Unreached,"""100","000+""",Diaspora,DEU,eh-ruhb middle eas-tern
"""Arab",eh-ruhb,,Germany,130000,Moroccan Arabic,Islam - Sunni,52.463174,13.429028,1,Unengaged,Little,Free,Moderate,High,Level 2: Exercise Increased Caution,A001,C0017,106804,"""Arab"," Moroccan""",DEU,GM,MO,,,Northern African and Middle Eastern Peoples,,0,Unengaged and Unreached,"""100","000+""",Diaspora,DEU,eh-ruhb moro-ccan
"""Arab",eh-ruhb,,Gibraltar,1700,Moroccan Arabic,Islam - Sunni,36.120378,-5.345277,1,Unengaged,Little,Free,Moderate,High,Alert,A001,C0017,106804,"""Arab"," Moroccan""",GIB,GI,MO,,,Northern African and Middle Eastern Peoples,,0,Unengaged and Unreached,"""<10","000""",Diaspora,GIB,eh-ruhb moro-ccan
"""Arab",eh-ruhb,,Libya,11500,Moroccan Arabic,Islam - Sunni,32.8568,13.1198,1,Unengaged,Medium,Not Free,High,High,Level 4: Do Not Travel,A001,C0017,106804,"""Arab"," Moroccan""",LBY,LY,,,,Northern African and Middle Eastern Peoples,,0,Unengaged and Unreached,"""10","000+""",Diaspora,LBY,eh-ruhb moro-ccan
"""Arab",eh-ruhb,,Portugal,23000,Moroccan Arabic,Islam - Sunni,37.0239,-7.930391,1,Unengaged,Low,Free,Low,Low,Level 1: Exercise Normal Precautions,A001,C0017,106804,"""Arab"," Moroccan""",PRT,PO,MO,,,Northern African and Middle Eastern Peoples,,0,Unengaged and Unreached,"""10","000+""",Diaspora,PRT,eh-ruhb moro-ccan
"""Arab",eh-ruhb,,United Kingdom,39500,Moroccan Arabic,Islam - Sunni,51.553999,-0.118568,1,Unengaged,Little,Free,Moderate,High,Level 2: Exercise Increased Caution,A001,C0017,106804,"""Arab"," Moroccan""",GBR,UK,MO,,,Northern African and Middle Eastern Peoples,,0,Unengaged and Unreached,"""10","000+""",Diaspora,GBR,eh-ruhb moro-ccan
"""Arab",eh-ruhb,,Yemen,13150000,Sanaani Arabic,Islam - Shia,16.947781,43.747221,1,Unengaged,Extreme,Not Free,Very High,High,Level 4: Do Not Travel,A001,C0020,108627,"""Arab"," Northern Yemeni""",YEM,YM,,,,Northern African and Middle Eastern Peoples,Yes,0,Unengaged and Unreached,"""10",000,"000+""",Indigenous,YEM,eh-ruhb nort-h-ern yemeni
"""Arab",eh-ruhb,,Djibouti,76500,Sanaani Arabic,Islam - Sunni,11.578284,43.146695,1,Unengaged,Strenuous,Not Free,Low,Moderate,Level 2: Exercise Increased Caution,A001,C0013,100431,"""Arab"," Omani""",DJI,DJ,MU,,,Northern African and Middle Eastern Peoples,,0,Unengaged and Unreached,"""50","000+""",Diaspora,DJI,eh-ruhb omani
"""Arab",eh-ruhb,,Kuwait,21500,Omani Arabic,Islam - Sunni,29.3809,47.9871,1,Unengaged,Low,Partly Free,High,Moderate,Level 1: Exercise Normal Precautions,A001,C0013,100431,"""Arab"," Omani""",KWT,KU,MU,,,Northern African and Middle Eastern Peoples,,0,Unengaged and Unreached,"""10","000+""",Diaspora,KWT,eh-ruhb omani
"""Arab",eh-ruhb,,Saudi Arabia,144000,Omani Arabic,Islam - Sunni,24.6546,46.7933,1,Unengaged,Low,Not Free,Very High,High,Level 3: Reconsider Travel,A001,C0013,100431,"""Arab"," Omani""",SAU,SA,MU,,,Northern African and Middle Eastern Peoples,,0,Unengaged and Unreached,"""100","000+""",Diaspora,SAU,eh-ruhb omani
"""Arab",eh-ruhb,,United Arab Emirates,350000,Omani Arabic,Islam - Sunni,24.179657,55.673898,1,Unengaged,Low,Not Free,Moderate,Low,Level 2: Exercise Increased Caution,A001,C0013,100431,"""Arab"," Omani""",ARE,AE,MU,,,Northern African and Middle Eastern Peoples,,0,Unengaged and Unreached,"""100","000+""",Diaspora,ARE,eh-ruhb omani
"""Arab",eh-ruhb,,Egypt,82000,Levantine Arabic,Islam - Sunni,30.129,31.3999,1,Unengaged,Medium,Not Free,Very High,Very High,Level 3: Reconsider Travel,A001,C0015,107785,"""Arab"," Palestinian""",EGY,EG,WE,,,Northern African and Middle Eastern Peoples,,0,Unengaged and Unreached,"""50","000+""",Diaspora,EGY,eh-ruhb pales-tinian
"""Arab",eh-ruhb,,El Salvador,1300,South Levantine Arabic,Islam - Sunni,13.707534,-89.237541,4,Unengaged,Strenuous,Partly Free,Low,Low,Level 3: Reconsider Travel,A001,C0015,107785,"""Arab"," Palestinian""",SLV,ES,WE,,,Northern African and Middle Eastern Peoples,,2,No Longer Unreached,"""<10","000""",Diaspora,SLV,eh-ruhb pales-tinian
"""Arab",eh-ruhb,,Eritrea,21000,South Levantine Arabic,Islam - Sunni,15.333751,38.932292,1,Unengaged,Extreme,Not Free,Very High,Low,Level 2: Exercise Increased Caution,A001,C0015,107785,"""Arab"," Palestinian""",ERI,ER,WE,,,Northern African and Middle Eastern Peoples,,0,Unengaged and Unreached,"""10","000+""",Diaspora,ERI,eh-ruhb pales-tinian
"""Arab",eh-ruhb,,France,1100,South Levantine Arabic,Islam - Sunni,48.924162,2.209947,1,Unengaged,Little,Free,Moderate,High,Level 2: Exercise Increased Caution,A001,C0015,107785,"""Arab"," Palestinian""",FRA,FR,,,,Northern African and Middle Eastern Peoples,,0,Unengaged and Unreached,"""<10","000""",Diaspora,FRA,eh-ruhb pales-tinian
"""Arab",eh-ruhb,,Iraq,21500,Levantine Arabic,Islam - Sunni,33.2996,44.437,1,Unengaged,Strenuous,Not Free,High,Very High,Level 4: Do Not Travel,A001,C0015,107785,"""Arab"," Palestinian""",IRQ,IZ,WE,,,Northern African and Middle Eastern Peoples,,0,Unengaged and Unreached,"""10","000+""",Diaspora,IRQ,eh-ruhb pales-tinian
"""Arab",eh-ruhb,,Libya,35000,Levantine Arabic,Islam - Sunni,32.105199,20.109749,1,Unengaged,Medium,Not Free,High,High,Level 4: Do Not Travel,A001,C0015,107785,"""Arab"," Palestinian""",LBY,LY,WE,,,Northern African and Middle Eastern Peoples,,0,Unengaged and Unreached,"""10","000+""",Diaspora,LBY,eh-ruhb pales-tinian
"""Arab",eh-ruhb,,Palestine,5465000,Levantine Arabic,Islam - Sunni,31.710335,35.200601,1,Unengaged,Medium,Not Free,,,,A001,C0015,107785,"""Arab"," Palestinian""",PSE,WB,,,,Northern African and Middle Eastern Peoples,,0,Unengaged and Unreached,"""1",000,"000+""",Indigenous,PSE,eh-ruhb pales-tinian
"""Arab",eh-ruhb,,Panama,9200,South Levantine Arabic,Islam - Sunni,9.355136,-79.902576,5,Unengaged,Low,Free,Low,Low,Level 2: Exercise Increased Caution,A001,C0015,107785,"""Arab"," Palestinian""",PAN,PM,WE,,,Northern African and Middle Eastern Peoples,,2,No Longer Unreached,"""<10","000""",Diaspora,PAN,eh-ruhb pales-tinian
"""Arab",eh-ruhb,,Qatar,382000,Levantine Arabic,Islam - Sunni,25.321536,51.486313,1,Unengaged,Low,Not Free,High,Moderate,Level 1: Exercise Normal Precautions,A001,C0015,107785,"""Arab"," Palestinian""",QAT,QA,WE,,,Northern African and Middle Eastern Peoples,,0,Unengaged and Unreached,"""100","000+""",Diaspora,QAT,eh-ruhb pales-tinian
"""Arab",eh-ruhb,,Saudi Arabia,450000,South Levantine Arabic,Islam - Sunni,24.47941,39.607041,1,Unengaged,Low,Not Free,Very High,High,Level 3: Reconsider Travel,A001,C0015,107785,"""Arab"," Palestinian""",SAU,SA,WE,,,Northern African and Middle Eastern Peoples,,0,Unengaged and Unreached,"""100","000+""",Diaspora,SAU,eh-ruhb pales-tinian
"""Arab",eh-ruhb,,Syria,531000,Levantine Arabic,Islam - Sunni,33.479501,36.2835,1,Unengaged,Strenuous,Not Free,Very High,Very High,Level 4: Do Not Travel,A001,C0015,107785,"""Arab"," Palestinian""",SYR,SY,WE,,,Northern African and Middle Eastern Peoples,,0,Unengaged and Unreached,"""100","000+""",Diaspora,SYR,eh-ruhb pales-tinian
"""Arab",eh-ruhb,,United Arab Emirates,62500,South Levantine Arabic,Islam - Sunni,25.396775,55.444519,1,Unengaged,Low,Not Free,Moderate,Low,Level 2: Exercise Increased Caution,A001,C0015,107785,"""Arab"," Palestinian""",ARE,AE,WE,,,Northern African and Middle Eastern Peoples,,0,Unengaged and Unreached,"""50","000+""",Diaspora,ARE,eh-ruhb pales-tinian
"""Arab",eh-ruhb,,Yemen,33000,Levantine Arabic,Islam - Sunni,15.3089,44.1977,1,Unengaged,Extreme,Not Free,Very High,High,Level 4: Do Not Travel,A001,C0015,107785,"""Arab"," Palestinian""",YEM,YM,WE,,,Northern African and Middle Eastern Peoples,,0,Unengaged and Unreached,"""10","000+""",Diaspora,YEM,eh-ruhb pales-tinian
"""Arab",eh-ruhb,,Qatar,396000,Gulf Arabic,Islam - Sunni,25.312348,51.403912,1,Unengaged,Low,Not Free,High,Moderate,Level 1: Exercise Normal Precautions,A001,C0013,100427,"""Arab"," Gulf Sunni""",QAT,QA,KU,,,Northern African and Middle Eastern Peoples,,0,Unengaged and Unreached,"""100","000+""",Indigenous,QAT,eh-ruhb qatari
"""Arab",eh-ruhb,,Jordan,33500,Hijazi Arabic,Islam - Sunni,31.9537,35.9433,1,Unengaged,Medium,Not Free,High,High,Level 2: Exercise Increased Caution,A001,C0013,108748,"""Arab"," Saudi - Hijazi""",JOR,JO,SA,,,Northern African and Middle Eastern Peoples,,0,Unengaged and Unreached,"""10","000+""",Diaspora,JOR,eh-ruhb saudi
"""Arab",eh-ruhb,,Kuwait,383000,Najdi Arabic,Islam - Sunni,29.343,47.659,1,Unengaged,Low,Partly Free,High,Moderate,Level 1: Exercise Normal Precautions,A001,C0013,101196,"""Arab"," Saudi - Najdi""",KWT,KU,SA,,,Northern African and Middle Eastern Peoples,,0,Unengaged and Unreached,"""100","000+""",Diaspora,KWT,eh-ruhb saudi
"""Arab",eh-ruhb,,Oman,56500,Standard Arabic,Islam - Sunni,23.5829,58.4096,1,Unengaged,Low,Not Free,High,Low,Level 2: Exercise Increased Caution,A001,C0013,101196,"""Arab"," Saudi - Najdi""",OMN,MU,,,,Northern African and Middle Eastern Peoples,,0,Unengaged and Unreached,"""50","000+""",Diaspora,OMN,eh-ruhb saudi
"""Arab",eh-ruhb,,Qatar,57000,Hijazi Arabic,Islam - Sunni,25.252903,51.428416,1,Unengaged,Low,Not Free,High,Moderate,Level 1: Exercise Normal Precautions,A001,C0013,108748,"""Arab"," Saudi - Hijazi""",QAT,QA,SA,,,Northern African and Middle Eastern Peoples,,0,Unengaged and Unreached,"""50","000+""",Diaspora,QAT,eh-ruhb saudi
"""Arab",eh-ruhb,,United Arab Emirates,158000,Hijazi Arabic,Islam - Sunni,25.219,55.387,1,Unengaged,Low,Not Free,Moderate,Low,Level 2: Exercise Increased Caution,A001,C0013,108748,"""Arab"," Saudi - Hijazi""",ARE,AE,SA,,,Northern African and Middle Eastern Peoples,,0,Unengaged and Unreached,"""100","000+""",Diaspora,ARE,eh-ruhb saudi
"""Arab",eh-ruhb,,Eritrea,30500,Hijazi Arabic,Islam - Sunni,15.3477,38.9247,1,Unengaged,Extreme,Not Free,Very High,Low,Level 2: Exercise Increased Caution,A001,C0019,108307,Rashaida,ERI,ER,SU,,,Northern African and Middle Eastern Peoples,,0,Unengaged and Unreached,"""10","000+""",Diaspora,ERI,eh-ruhb saudi
"""Arab",eh-ruhb,,Canada,21500,Sudanese Arabic,Islam - Sunni,51.03,-113.965,1,Unengaged,Little,Free,Low,Moderate,Level 1: Exercise Normal Precautions,A001,C0019,109571,"""Arab"," Sudanese""",CAN,CA,SU,,,Northern African and Middle Eastern Peoples,,0,Unengaged and Unreached,"""10","000+""",Diaspora,CAN,eh-ruhb suda-nese
"""Arab",eh-ruhb,,Egypt,5925000,Sudanese Arabic,Islam - Sunni,30.0278,31.2379,1,Unengaged,Medium,Not Free,Very High,Very High,Level 3: Reconsider Travel,A001,C0019,109571,"""Arab"," Sudanese""",EGY,EG,SU,,,Northern African and Middle Eastern Peoples,,0,Unengaged and Unreached,"""1",000,"000+""",Diaspora,EGY,eh-ruhb suda-nese
"""Arab",eh-ruhb,,Eritrea,33000,Sudanese Arabic,Islam - Sunni,15.3306,38.9179,1,Unengaged,Extreme,Not Free,Very High,Low,Level 2: Exercise Increased Caution,A001,C0019,109571,"""Arab"," Sudanese""",ERI,ER,SU,,,Northern African and Middle Eastern Peoples,,0,Unengaged and Unreached,"""10","000+""",Diaspora,ERI,eh-ruhb suda-nese
